facility_id,facility_name,facility_type,capacity,region,licence_issue_date,inspection_date,gps_location,remarks,latitude,longitude
HF0000,Burgess-Ingram Medical Center,community health center,250,st. lucy,2021-04-01,2024-03-08,13085765875331,missing,13.08576,-58.75331
033477,Collins Inc,hospital,0,st. peter,2024-03-28,2023-04-17,58840011287196,good,12.87196,-58.84001
2,Butler-Leon Clinic,hospital,117,st. james,2016-02-18,2022-12-30,58823071300952,good,13.00952,-58.82307
2,Butler-Leon Clinic,hospital,117,st. james,2016-02-18,2022-12-30,58823071300952,good,13.00952,-58.82307
HF0003,Powell Morales and Butler Infirmary,health center,179,st. lucy,2020-11-21,2024-07-03,12772935904279,followup ,12.77293,-59.04279
00004,Williams Woods and Bradley Polyclinic,hospital,0,st. andrew,2021-04-17,2024-01-31,131243585150,missing,13.1243,-58.515
missing,May and Sons Medical Center,polyclinic,10,st. peter,2016-02-17,2018-01-01,132659038,followup ,13.26,-59.03
00006,Herrera-Taylor-and-Sanchez,health center,10,st. andrew,2021-06-11,2018-03-22,131485921,,13.14,-85.92
007,Wagner-Franklin Health Centre,clinic,461,st. james,2018-05-18,2019-07-31,59109191304721,missing,13.04721,-59.10919
missing,Hurley Jensen and Perkins Hosp,hospital,338,st. lucy,2025-09-09,2025-09-26,13217725918644,reinspection due,13.21772,-59.18644
HF0009,Lee-Macias Polyclinic,community health center,10,st. andrew,2019-11-13,2024-08-15,125344585913,reinspection due,12.5344,-58.5913
missing,White-Wilcox-and-Martin Medical Center,polyclinic,408,st. andrew,2024-01-18,2019-12-16,12719675888816,,12.71967,-58.88816
011,Brown-Wilson,community health center,27,christ church,2020-09-27,2019-03-13,13141959218,reinspection due,13.141,-95.921
12,Newton-Peters-and-Rivera,community health center,392,christ church,2024-08-23,2023-05-06,59221101322506,missing,13.22506,-59.2211
13,Barr Conley and Mendoza Clinic,polyclinic,0,st. james,2024-08-16,2022-08-01,58879851317264,,13.17264,-58.87985
333db8,Zimmerman and Sons Infirmary,polyclinic,84,st. lucy,2019-02-10,2025-11-18,58912501317008,good,13.17008,-58.9125
015,Martinez Williams and Ellis Polyclinic,hospital,0,st. james,2017-01-07,2023-08-01,125858591320,followup ,12.5858,-59.132
af30f0,Bradley PLC,clinic,0,st. george,2020-08-20,2018-05-16,12512959749,,12.512,-95.974
00017,Wagner LLC,missing,10,christ church,2016-12-09,2023-07-24,13099285888444,,13.09928,-58.88444
6f82f6,Case and Sons Polyclinic,polyclinic,166,st. james,2018-09-10,2024-09-25,13074095884039,missing,13.07409,-58.84039
00019,Rodriguez Mayer and Hamilton,clinic,474,st. joseph,2025-12-31,2024-02-27,58716021298428,missing,12.98428,-58.71602
2ba130,Brown PLC Polyclinic,polyclinic,0,st. james,2016-07-07,2024-05-28,124345591710,reinspection due,12.4345,-59.171
missing,Guerrero PLC Hospital,health center,0,st. george,2019-12-25,2023-05-31,59103851284030,reinspection due,12.8403,-59.10385
022,Baker-Taylor Hosp,missing,0,st. joseph,2018-02-04,2019-06-02,59241151270994,missing,12.70994,-59.24115
23,Allen Riley and Kennedy,hospital,0,st. peter,2025-10-22,2022-10-31,,reinspection due,13.0,-59.0
23,Allen Riley and Kennedy,hospital,0,st. peter,2025-10-22,2022-10-31,,reinspection due,13.0,-59.0
024,Lowe-Morris Health Centre,community health center,408,st. john,2017-01-04,2025-11-23,,,13.0,-59.0
HF0025,Adams-Silva-and-Davidson Medical Center,missing,99,st. george,2021-09-03,2025-12-11,59068831311901,,13.11901,-59.06883
missing,Lopez Allen and Estrada Hosp,hospital,285,st. michael,2018-10-14,2023-05-20,,reinspection due,13.0,-59.0
3b7308,Miller Pennington and Blake,hospital,0,st. peter,2022-06-23,2022-05-02,58843681285638,missing,12.85638,-58.84368
00028,Johnson Group Clinic,health center,10,st. michael,2023-07-25,2021-06-25,59241231312849,,13.12849,-59.24123
00028,Johnson Group Clin,health center,10,st. michael,2023-07-25,2021-06-25,59241231312849,,13.12849,-59.24123
029,Bentley Scott and Graves Clinic,missing,0,st. joseph,2019-12-22,2019-10-30,13246295898848,,13.24629,-58.98848
030,Owens Ltd,hospital,495,missing,2022-08-03,2025-02-28,58802171314441,followup ,13.14441,-58.80217
00031,Price Andrews and Scott Medical Center,community health center,0,st. andrew,2023-07-22,2019-11-06,,missing,13.0,-59.0
missing,Young Dickerson and Wells,health center,416,st. peter,2022-04-03,2023-11-02,59231371299300,good,12.993,-59.23137
033,Cook-Dean,clinic,42,christ church,2024-04-04,2020-07-22,59053771323725,,13.23725,-59.05377
776a5f,Cook Potter and Fritz,health center,0,christ church,2025-12-27,2023-04-21,58831821277064,missing,12.77064,-58.83182
00035,Johnson Ltd Hosp,community health center,295,missing,2017-01-20,2024-07-29,125833585632,,12.5833,-58.5632
00036,Harvey PLC Clinic,missing,0,st. peter,2021-08-21,2022-05-20,59184861303728,needs upgrade,13.03728,-59.18486
00036,Harvey PLC Clin,missing,0,st. peter,2021-08-21,2022-05-20,59184861303728,needs upgrade,13.03728,-59.18486
00037,Jones Group Hosp,clinic,75,st. george,2020-12-30,2022-03-11,13294095872088,good,13.29409,-58.72088
00037,Jones Group Hosp,clinic,75,st. george,2020-12-30,2022-03-11,13294095872088,good,13.29409,-58.72088
038,Chapman PLC,health center,375,christ church,2025-02-11,2018-01-05,59157351270734,good,12.70734,-59.15735
da683e,Good-Martin-and-Wade,hospital,10,st. lucy,2022-01-31,2019-04-06,58981951280190,,12.8019,-58.98195
40,Taylor-Turner Health Centre,community health center,424,st. george,2017-11-18,2021-09-02,58778121324369,needs upgrade,13.24369,-58.77812
a677b0,Richardson-Spencer-and-Johns Hosp,clinic,56,christ church,2020-12-17,2021-10-08,59044281274772,followup ,12.74772,-59.04428
042,Kennedy-Arnold Infirmary,community health center,123,st. joseph,2025-08-24,2018-11-09,,followup ,13.0,-59.0
43,Grimes Wilson and Harvey Health Centre,missing,353,st. michael,2024-04-13,2021-09-19,58868391312192,good,13.12192,-58.86839
44,Nguyen-Poole Health Centre,clinic,387,st. lucy,2017-06-01,2022-03-23,,good,13.0,-59.0
00045,Pierce and Sons Polyclinic,clinic,10,st. peter,2024-11-24,2020-01-06,59154151304323,reinspection due,13.04323,-59.15415
46,Contreras-Moreno Hospital,health center,99,st. michael,2016-08-28,2024-11-24,58995801311947,,13.11947,-58.9958
missing,Jones-Moon,community health center,391,st. james,2023-10-21,2018-09-20,13189185929334,good,13.18918,-59.29334
missing,Ramirez Cooper and Stone Hospital,hospital,193,st. andrew,2024-12-30,2021-10-24,58764731282983,followup ,12.82983,-58.76473
missing,Ramirez Cooper and Stone Hosp,hospital,193,st. andrew,2024-12-30,2021-10-24,58764731282983,followup ,12.82983,-58.76473
00049,Shepard-PLC,clinic,0,st. joseph,2016-06-19,2023-04-08,133058489,,13.3,-58.48
00050,Bean Colon and Baird Infirmary,clinic,0,st. lucy,2024-03-22,2024-07-03,131637585222,,13.1637,-58.5222
00050,Bean Colon and Baird Infirmary,clinic,0,st. lucy,2024-03-22,2024-07-03,131637585222,,13.1637,-58.5222
missing,Pierce Glenn and Norton Hosp,missing,430,st. lucy,2025-10-06,2024-04-04,13159395920132,good,13.15939,-59.20132
cc6b95,Day-Payne,health center,497,st. joseph,2023-06-01,2024-06-22,58918121304085,good,13.04085,-58.91812
053,Turner-and-Sons,polyclinic,226,st. james,2023-03-28,2025-07-30,131517585140,good,13.1517,-58.514
054,Thomas-Rogers ClinicNewLine,missing,308,christ church,2021-01-30,2022-07-10,58918881324203,good,13.24203,-58.91888
054,Thomas-Rogers ClinNewLine,missing,308,christ church,2021-01-30,2022-07-10,58918881324203,good,13.24203,-58.91888
55,Thompson-Macias Hosp,missing,47,st. george,2016-05-04,2021-03-11,59034031279026,,12.79026,-59.03403
56,Webb-King-and-Logan,clinic,223,st. michael,2017-12-05,2018-03-19,12739125905921,reinspection due,12.73912,-59.05921
057,Taylor-Welch,clinic,0,st. peter,2024-01-09,2022-03-03,131117591359,missing,13.1117,-59.1359
a6886a,Walton-Hensley,hospital,10,st. lucy,2022-03-05,2018-01-18,13244935910481,,13.24493,-59.10481
059,Luna LLC Health Centre,community health center,0,st. michael,2024-02-02,2025-01-22,12990035921087,,12.99003,-59.21087
060,Salazar LLC,health center,0,st. joseph,2025-11-30,2019-02-22,,missing,13.0,-59.0
61,Mccarty-Atkins Infirmary,hospital,100,st. james,2024-11-08,2022-02-12,,missing,13.0,-59.0
062,Stevenson-Powell Hospital,missing,300,st. andrew,2018-05-10,2021-05-09,59270021311210,,13.1121,-59.27002
062,Stevenson-Powell Hosp,missing,300,st. andrew,2018-05-10,2021-05-09,59270021311210,,13.1121,-59.27002
missing,Perry Inc,community health center,0,st. lucy,2021-06-11,2024-01-19,134465988,,13.44,-65.98
6b470a,Brown-Harrison,polyclinic,316,st. joseph,2019-10-16,2020-06-18,59114471302715,missing,13.02715,-59.11447
missing,Craig-Mitchell Hosp,missing,236,st. peter,2019-05-08,2025-07-27,,missing,13.0,-59.0
066,Nelson-Long Hosp,hospital,38,christ church,2017-04-01,2018-05-21,58711941301829,,13.01829,-58.71194
missing,Williams Group Hospital,community health center,422,missing,2019-08-05,2025-09-20,59206781284610,followup ,12.8461,-59.20678
missing,Williams Group Hosp,community health center,422,missing,2019-08-05,2025-09-20,59206781284610,followup ,12.8461,-59.20678
068,Henderson Ltd Hospital,missing,0,st. james,2016-09-20,2019-09-27,59289521318085,needs upgrade,13.18085,-59.28952
missing,Davis-Hernandez-and-Simon Infirmary,community health center,466,st. andrew,2019-09-13,2022-07-28,58723881288048,missing,12.88048,-58.72388
070,Wiggins-Rivas Medical Center,health center,115,st. lucy,2025-03-05,2023-05-11,58820871326942,,13.26942,-58.82087
071,Barnes-MccartyNewLine,missing,246,missing,2023-02-04,2021-10-09,,,13.0,-59.0
72,Jimenez-Rodgers Hospital,hospital,0,christ church,2022-12-01,2023-07-19,58897741270043,missing,12.70043,-58.89774
73,Chambers-Hickman,clinic,322,st. john,2016-03-22,2024-07-09,,,13.0,-59.0
HF0074,Lindsey-Li,clinic,0,st. peter,2025-11-21,2019-03-23,13191065883552,reinspection due,13.19106,-58.83552
075,Kim Inc Clinic,missing,0,christ church,2017-09-04,2018-02-02,59132311311191,reinspection due,13.11191,-59.13231
075,Kim Inc Clinic,missing,0,christ church,2017-09-04,2018-02-02,59132311311191,reinspection due,13.11191,-59.13231
076,Davis-Salazar Medical Center,clinic,176,st. andrew,2024-01-18,2024-07-28,,missing,13.0,-59.0
00077,Fields-Sloan Medical Center,polyclinic,0,st. michael,2021-07-30,2020-08-14,58709631285988,needs upgrade,12.85988,-58.70963
e2b345,Malone Jones and Robbins Infirmary,community health center,480,missing,2023-08-08,2020-02-11,59031511296314,reinspection due,12.96314,-59.03151
missing,Cox-Washington-and-Blair,community health center,0,st. james,2017-11-27,2021-12-28,59221641283182,reinspection due,12.83182,-59.22164
missing,Lawrence-Nguyen Medical Center NewLine,polyclinic,0,christ church,2025-12-20,2025-10-21,58761121326527,missing,13.26527,-58.76112
missing,Sellers Gibson and Klein Polyclinic,health center,21,missing,2021-03-24,2023-03-05,,missing,13.0,-59.0
082,Green-Gill Polyclinic,health center,0,christ church,2020-05-06,2022-05-24,,followup ,13.0,-59.0
082,Green-Gill Polyclinic,health center,0,christ church,2020-05-06,2022-05-24,,followup ,13.0,-59.0
083,Williams Schwartz and Bishop Hospital,missing,230,missing,2022-08-23,2024-10-04,59275251294418,missing,12.94418,-59.27525
083,Williams Schwartz and Bishop Hosp,missing,230,missing,2022-08-23,2024-10-04,59275251294418,missing,12.94418,-59.27525
missing,Williams-Inc Health Centre,missing,346,st. michael,2024-06-01,2023-09-03,13037655884780,needs upgrade,13.03765,-58.8478
missing,Solis PLC,clinic,0,st. james,2017-03-06,2018-05-09,58868531325454,,13.25454,-58.86853
86,Hill-Camacho Health Centre,clinic,134,st. joseph,2021-05-22,2025-05-06,58988701299454,missing,12.99454,-58.9887
missing,Williams Sanders and Turner Health Centre,health center,310,st. john,2019-07-31,2024-09-25,58981321288486,followup ,12.88486,-58.98132
missing,Liu-Perez,health center,69,st. andrew,2016-08-16,2018-03-02,,reinspection due,13.0,-59.0
89,Snyder-Morales Medical Center,clinic,166,st. joseph,2021-03-11,2018-12-26,12444059627,good,5.962,-12.444
missing,Garcia LLC Hosp,community health center,0,st. michael,2018-06-09,2025-09-30,1311759651,good,13.117,-59.651
HF0091,Pineda GroupNewLine,hospital,62,christ church,2019-02-19,2024-05-15,,missing,13.0,-59.0
missing,Cole-Inc Hospital,polyclinic,167,st. joseph,2019-12-13,2020-09-30,58864431315694,,13.15694,-58.86443
missing,Cole-Inc Hospital,polyclinic,167,st. joseph,2019-12-13,2020-09-30,58864431315694,,13.15694,-58.86443
0ca67e,Anderson-Stokes,community health center,468,st. michael,2025-07-13,2021-04-02,125625585448,missing,12.5625,-58.5448
94,Fox Ltd,clinic,191,st. peter,2016-05-06,2021-10-06,12954935911045,needs upgrade,12.95493,-59.11045
095,Ray Smith and Turner Hosp,community health center,345,st. lucy,2016-06-05,2021-01-10,13075085870656,good,13.07508,-58.70656
d72c1e,Cruz Ltd Health Centre,community health center,10,st. joseph,2024-12-27,2021-06-13,58706741306407,followup ,13.06407,-58.70674
missing,Kelly Cervantes and Salinas,community health center,417,st. george,2016-12-03,2019-09-19,12704975919715,followup ,12.70497,-59.19715
427288,Johnson Miller and Flores,polyclinic,85,st. michael,2020-07-28,2020-03-11,13234485904058,followup ,13.23448,-59.04058
HF0099,Gallegos PLC,hospital,0,christ church,2017-06-07,2025-06-19,59143301322849,good,13.22849,-59.1433
HF0100,Daniels-Murphy,community health center,0,st. james,2022-12-14,2023-05-28,,,13.0,-59.0
HF0100,Daniels-Murphy,community health center,0,st. james,2022-12-14,2023-05-28,,,13.0,-59.0
8c3ae9,Clark-Flynn,clinic,0,st. john,2019-04-21,2021-08-27,59116281322592,missing,13.22592,-59.11628
8c3ae9,Clark-Flynn,clinic,0,st. john,2019-04-21,2021-08-27,59116281322592,missing,13.22592,-59.11628
102,Harris-Esparza,community health center,488,christ church,2025-07-30,2021-10-07,,,13.0,-59.0
102,Harris-Esparza,community health center,488,christ church,2025-07-30,2021-10-07,,,13.0,-59.0
00103,Gray-Turner Clinic,health center,64,st. michael,2024-12-16,2021-11-08,,,13.0,-59.0
104,George Ltd Clinic,community health center,71,st. andrew,2018-05-24,2024-08-11,58878571305713,reinspection due,13.05713,-58.87857
HF0105,Green-Manning Health Centre,hospital,0,christ church,2019-08-08,2024-08-28,58983271271436,followup ,12.71436,-58.98327
missing,Levy-Rogers Infirmary,community health center,307,st. michael,2016-10-25,2022-11-15,,missing,13.0,-59.0
missing,Levy-Rogers Infirmary,community health center,307,st. michael,2016-10-25,2022-11-15,,missing,13.0,-59.0
107,Mcbride LLC Clinic,clinic,101,st. andrew,2020-08-17,2019-06-03,12472159433,missing,12.472,-15.943
missing,Hansen Serrano and Ramirez Health Centre,community health center,0,st. james,2021-10-12,2018-08-19,1302859738,missing,13.028,-59.738
109,Camacho-Cross Hosp,missing,0,st. lucy,2025-07-01,2019-05-23,58972691285044,good,12.85044,-58.97269
109,Camacho-Cross Hosp,missing,0,st. lucy,2025-07-01,2019-05-23,58972691285044,good,12.85044,-58.97269
110,Walker Ortiz and Hansen Hosp,clinic,285,st. john,2017-08-13,2020-07-20,58800991314742,missing,13.14742,-58.80099
110,Walker Ortiz and Hansen Hosp,clinic,285,st. john,2017-08-13,2020-07-20,58800991314742,missing,13.14742,-58.80099
111,Hardy-Contreras,health center,10,st. peter,2020-12-14,2021-10-03,13165159753,good,13.165,-15.975
2d8089,Richardson-Morales-and-Terry Health Centre,health center,0,st. james,2024-08-17,2019-12-16,1311585937,missing,13.115,-85.937
00113,Miller-Shelton Infirmary,clinic,0,missing,2020-03-15,2019-02-22,125965919,missing,12.59,-65.91
00114,Walsh-Garcia-and-Knox,clinic,314,st. james,2017-04-30,2024-08-06,13121085878480,reinspection due,13.12108,-58.7848
00115,Mcdaniel Inc Health Centre,polyclinic,75,st. james,2023-05-23,2022-10-10,59028091303301,,13.03301,-59.02809
HF0116,Harrison-White,health center,28,st. john,2022-08-14,2021-03-24,59213101273681,needs upgrade,12.73681,-59.2131
HF0117,Adams-Curry Hosp,missing,43,st. michael,2018-10-22,2024-10-13,13091765919394,,13.09176,-59.19394
HF0118,Brady PLC,hospital,0,st. michael,2021-02-19,2019-03-31,13067965897284,,13.06796,-58.97284
00119,Smith-Lloyd Medical Center,missing,136,st. james,2021-10-07,2019-02-24,59091801282763,good,12.82763,-59.0918
00120,Perez Hopkins and Smith,polyclinic,0,st. john,2017-01-18,2024-04-24,59229201309093,missing,13.09093,-59.2292
missing,Erickson-King-and-Mack Hospital,community health center,0,st. george,2020-07-25,2021-12-06,125216591029,followup ,12.5216,-59.1029
missing,Erickson-King-and-Mack Hosp,community health center,0,st. george,2020-07-25,2021-12-06,125216591029,followup ,12.5216,-59.1029
122,Hayes-Brown-and-Hood Polyclinic,missing,351,st. john,2020-10-05,2025-02-15,59142941299770,followup ,12.9977,-59.14294
123,Stewart-Webb,health center,10,christ church,2018-11-16,2019-10-13,13142459158,good,13.142,-45.915
124,Fowler-Wright Infirmary,community health center,0,st. peter,2025-06-09,2018-05-25,1325358483,reinspection due,13.253,-58.483
125,Anderson Wagner and Williams Hospital,clinic,299,st. james,2020-08-29,2019-06-28,13120585036,,13.12,-58.503
HF0126,Moore-Brown Clinic,polyclinic,328,christ church,2020-10-31,2019-12-21,58899341313815,,13.13815,-58.89934
HF0126,Moore-Brown Clin,polyclinic,328,christ church,2020-10-31,2019-12-21,58899341313815,,13.13815,-58.89934
af7b16,Taylor Cabrera and Swanson Clinic,health center,217,st. john,2021-05-19,2020-02-16,,good,13.0,-59.0
307989,Snyder-Moore,missing,450,st. john,2021-06-23,2025-01-28,13546591120,,13.546,-59.112
129,Swanson-Ltd Hosp,hospital,0,st. peter,2024-11-30,2024-10-02,13009625927337,,13.00962,-59.27337
missing,Gregory Miller and Watkins Health Centre,hospital,10,st. peter,2019-06-18,2024-06-15,12975665897619,,12.97566,-58.97619
HF0131,Clements-PLC Hospital,clinic,56,st. lucy,2016-12-17,2020-03-14,12575659214,missing,12.575,-65.921
HF0131,Clements-PLC Hosp,clinic,56,st. lucy,2016-12-17,2020-03-14,12575659214,missing,12.575,-65.921
132,Peterson PLC Clinic,health center,292,missing,2023-06-07,2021-07-04,59178511320252,needs upgrade,13.20252,-59.17851
00133,Woods-Ltd,health center,54,st. john,2023-08-22,2019-03-27,131155985,missing,13.11,-55.98
134,Kerr-Vincent,community health center,10,st. george,2020-12-07,2025-06-19,58816301290485,reinspection due,12.90485,-58.8163
134,Kerr-Vincent,community health center,10,st. george,2020-12-07,2025-06-19,58816301290485,reinspection due,12.90485,-58.8163
missing,Brown-Lucas Clinic,polyclinic,422,st. james,2018-12-23,2018-12-08,58844141290411,reinspection due,12.90411,-58.84414
a6e6a5,Gutierrez-Lawson Polyclinic,hospital,210,st. lucy,2022-04-07,2022-08-30,58942921299588,,12.99588,-58.94292
HF0137,Garcia Eaton and Hooper Hosp,clinic,0,st. andrew,2021-01-11,2021-07-30,12455585955,reinspection due,12.455,-58.595
missing,Murphy-Wolfe Infirmary,community health center,10,st. lucy,2021-04-25,2021-12-11,,needs upgrade,13.0,-59.0
missing,Thompson-Baker,missing,151,st. michael,2023-02-10,2023-04-06,13727591454,,13.727,-59.145
6df688,Good-Bailey Medical Center,polyclinic,314,st. john,2019-06-28,2025-06-07,12779555919385,followup ,12.77955,-59.19385
a22848,Mercado and Sons,polyclinic,199,st. john,2018-11-01,2021-11-11,,reinspection due,13.0,-59.0
f22c91,Bowen Curry and Neal Hospital,clinic,10,st. michael,2025-12-10,2021-10-18,58791091321132,,13.21132,-58.79109
143,Parker-Inc Clinic,community health center,345,missing,2016-02-02,2022-03-23,58799751296476,followup ,12.96476,-58.79975
0d5aae,Curtis Inc Medical Center,missing,0,st. peter,2023-12-24,2023-10-06,58831371329130,,13.2913,-58.83137
HF0145,Arnold White and Barrett Clinic,health center,199,missing,2025-08-31,2019-03-18,,missing,13.0,-59.0
146,Ward-Hudson Hospital,health center,495,st. lucy,2017-07-03,2018-10-05,58776361281417,,12.81417,-58.77636
missing,Patterson and Sons Hosp,health center,221,st. john,2025-07-16,2018-03-11,59029951290651,missing,12.90651,-59.02995
148,Mccarthy-Andersen-and-Jones,community health center,0,st. george,2022-11-19,2024-01-07,130115971,good,13.01,-15.97
149,Bell-and-Sons Infirmary,missing,0,st. joseph,2022-02-07,2023-06-24,58969301308021,,13.08021,-58.9693
00150,Hancock Sanchez and Lin Health Centre,community health center,0,st. michael,2020-07-06,2024-06-22,58776261273962,followup ,12.73962,-58.77626
missing,Gordon-Lozano Infirmary,community health center,417,st. michael,2016-11-15,2019-10-22,125037591332,reinspection due,12.5037,-59.1332
missing,Davis-Carter-and-Johnson Hospital,missing,113,missing,2020-05-24,,59007151280279,,12.80279,-59.00715
missing,Wilkins-Inc,community health center,5,christ church,2020-08-26,2022-11-03,59074131278907,,12.78907,-59.07413
missing,Hall-Cox Hospital,community health center,477,christ church,2024-08-17,2020-10-05,58971791273379,missing,12.73379,-58.97179
155,Graves and Sons,health center,129,st. michael,2023-05-12,2020-08-11,58798721329619,,13.29619,-58.79872
missing,Freeman-Newton,clinic,263,st. peter,2016-12-14,2024-07-07,59056941294787,missing,12.94787,-59.05694
HF0157,Cisneros and Sons Medical Center,community health center,344,st. peter,2020-10-09,2019-10-25,13078995884994,missing,13.07899,-58.84994
158,Lewis-Hernandez,health center,95,st. lucy,2017-10-17,2022-05-17,58994371280165,reinspection due,12.80165,-58.99437
HF0159,Harris Martin and Hayden Health Centre,missing,191,missing,2025-04-07,2020-11-25,59003181297798,missing,12.97798,-59.00318
HF0160,Hernandez-Green Hospital,polyclinic,0,missing,2024-03-18,2018-02-09,58919081319163,,13.19163,-58.91908
HF0161,Ingram-Thomas Clinic,clinic,396,st. joseph,2020-07-05,2025-01-25,13086615914029,missing,13.08661,-59.14029
162,Cooper-Gardner Medical Center,hospital,46,st. joseph,2017-10-24,2021-03-28,58891651275936,followup ,12.75936,-58.89165
00163,Walker PLC,community health center,10,christ church,2018-04-01,2024-10-19,,good,13.0,-59.0
164,Nash Inc Health Centre,clinic,0,christ church,2017-01-20,2020-05-01,13951591716,missing,13.951,-59.171
00165,Jones Allen and Powell Clinic,polyclinic,235,st. george,2021-06-24,2023-07-17,12702655915354,missing,12.70265,-59.15354
missing,Bishop-Phelps,clinic,202,st. james,2020-04-01,2019-07-04,1322659937,missing,13.226,-59.937
167,Fields-Johnson Medical Center,health center,327,st. lucy,2021-06-06,2020-10-09,58755181282892,,12.82892,-58.75518
00168,Anderson LLC Polyclinic,hospital,274,st. michael,2023-07-23,2025-11-03,59189731329045,,13.29045,-59.18973
missing,Allison PLC,polyclinic,20,st. george,2023-07-11,2020-08-25,125436584647,missing,12.5436,-58.4647
missing,Patrick PLC Health Centre,community health center,0,st. george,,2020-12-14,1321459518,,13.214,-59.518
00171,Khan-Jones,community health center,7,christ church,2023-04-06,2023-03-27,,missing,13.0,-59.0
missing,Johnson Burke and Edwards Health Centre,clinic,0,st. peter,2021-08-23,2019-05-12,,needs upgrade,13.0,-59.0
missing,Nicholson-Little Hosp,community health center,283,st. lucy,2020-11-24,2025-11-25,,followup ,13.0,-59.0
00174,Peterson Inc,hospital,369,st. george,2025-04-13,2022-07-03,13135359853,,13.135,-35.985
HF0175,Singh-Inc,polyclinic,175,st. andrew,,2022-03-06,58820491290014,good,12.90014,-58.82049
missing,Young Dunlap and Mata,community health center,0,st. john,2022-09-11,2021-07-14,125005973,,5.97,-12.5
177,Rivera-Walker-and-Alexander,health center,20,st. john,2023-01-21,2024-10-21,13088605917347,missing,13.0886,-59.17347
e09941,Nelson Hill and Odonnell,clinic,0,st. george,2025-11-09,2022-08-24,59291351311993,missing,13.11993,-59.29135
missing,Williams Ltd,community health center,0,st. michael,2017-11-22,2020-11-01,58772571290949,missing,12.90949,-58.77257
missing,Williams Ltd,community health center,0,st. michael,2017-11-22,2020-11-01,58772571290949,missing,12.90949,-58.77257
180,Washington Inc Health Centre,missing,10,st. george,2018-05-05,2023-10-18,124339591537,missing,12.4339,-59.1537
HF0181,Walker-Oneal Hospital,community health center,10,christ church,2025-12-12,2022-11-18,58842771307029,,13.07029,-58.84277
182,Zamora-Ltd,hospital,30,st. george,2020-05-05,2018-06-25,58764951326066,missing,13.26066,-58.76495
00183,Butler Ramos and Anderson,polyclinic,10,st. andrew,2024-11-06,,12544359745,,12.544,-35.974
missing,Wallace Perry and Gonzales Infirmary,missing,0,missing,2017-07-13,2020-10-03,,reinspection due,13.0,-59.0
8232bf,Wolfe Ltd Polyclinic,community health center,0,st. andrew,2021-08-24,2019-05-11,58750461280114,followup ,12.80114,-58.75046
186,Medina-and-Sons Hospital,missing,0,christ church,2019-06-23,2020-08-07,,,13.0,-59.0
HF0187,Rhodes and Sons,hospital,215,st. lucy,2023-09-15,2023-06-09,58754481313166,needs upgrade,13.13166,-58.75448
HF0188,Myers Inc Medical Center,missing,406,st. peter,2020-12-19,2023-12-25,58709131300881,,13.00881,-58.70913
missing,Horne-Baker Medical Center,polyclinic,0,st. john,2021-08-10,2018-10-21,59181701329643,,13.29643,-59.1817
missing,Jimenez Mullins and Hamilton Hospital,missing,0,st. michael,2017-04-19,2018-04-09,13098655921086,,13.09865,-59.21086
3e22ac,King-Smith InfirmaryNewLine,missing,0,st. peter,2020-07-03,2025-05-31,,missing,13.0,-59.0
HF0192,Barnett Lee and Malone Hosp,hospital,10,st. andrew,2025-07-16,2020-03-26,59233821315991,,13.15991,-59.23382
missing,Cohen Phillips and Powell Clinic,missing,381,st. joseph,2019-10-01,2025-08-14,124816585350,missing,12.4816,-58.535
22fe4e,Conrad-Clark-and-Wong,clinic,10,st. john,2016-09-01,2018-05-31,58761181298474,,12.98474,-58.76118
00195,Jackson Lynn and Jones Infirmary,health center,10,st. michael,2022-08-04,2023-09-05,1242345991,missing,12.423,-45.991
missing,Johnson-Martinez,polyclinic,131,st. peter,2018-03-21,2025-03-10,59288491273095,needs upgrade,12.73095,-59.28849
197,Reed Group,health center,137,st. george,2021-08-09,2018-12-17,13196055895608,good,13.19605,-58.95608
0e7646,Lewis-Hill-and-Love,community health center,0,st. michael,2021-01-29,2021-06-30,58728981308813,good,13.08813,-58.72898
00199,Anderson-Esparza Health Centre,polyclinic,191,missing,2018-03-04,2022-05-08,,needs upgrade,13.0,-59.0
HF0200,Austin Smith and Hamilton Hosp,clinic,0,christ church,2025-08-10,2023-06-08,12704685877693,,12.70468,-58.77693
201,Holmes and Sons,community health center,339,st. andrew,2025-06-11,2023-06-23,13103059843,missing,5.984,-13.103
b16cad,Smith-Carlson Clinic,clinic,39,st. andrew,2017-04-22,2024-05-17,13275825886276,reinspection due,13.27582,-58.86276
b16cad,Smith-Carlson Clin,clinic,39,st. andrew,2017-04-22,2024-05-17,13275825886276,reinspection due,13.27582,-58.86276
203,Flores-Group Hospital,polyclinic,126,st. andrew,2024-05-06,2019-04-10,58869371277601,missing,12.77601,-58.86937
00204,Baker Castaneda and Erickson Clinic,community health center,0,st. john,2017-06-17,2019-10-22,58851141270715,reinspection due,12.70715,-58.85114
00204,Baker Castaneda and Erickson Clin,community health center,0,st. john,2017-06-17,2019-10-22,58851141270715,reinspection due,12.70715,-58.85114
00205,Wheeler-PLC Infirmary,community health center,96,st. john,2020-12-03,2022-12-03,12543459259,reinspection due,12.543,-45.925
missing,Smith and Sons Medical Center,hospital,27,st. andrew,2025-11-13,2025-06-27,58700161277962,,12.77962,-58.70016
missing,Lamb-Morton-and-Garcia,missing,0,st. george,2023-05-05,2024-10-11,58962441272442,needs upgrade,12.72442,-58.96244
208,Best-Frederick Clinic,community health center,358,christ church,2024-12-25,2020-08-22,59266091303765,missing,13.03765,-59.26609
209,Wilson and Sons Clinic,missing,33,st. james,2023-10-23,2018-01-12,58731951288859,good,12.88859,-58.73195
HF0210,Vasquez-PLC,community health center,193,st. john,2022-08-02,2021-01-22,13266845875149,,13.26684,-58.75149
00211,Marquez-Rodgers Infirmary,polyclinic,260,st. james,2018-05-22,2024-07-01,,followup ,13.0,-59.0
missing,Garcia-Singleton Health Centre,community health center,0,st. lucy,2018-02-08,2019-02-02,,missing,13.0,-59.0
ae7f62,Jones-Griffith,missing,19,st. andrew,2018-12-22,2019-03-07,,missing,13.0,-59.0
missing,Cervantes Ltd,clinic,20,st. michael,2025-07-01,2024-09-21,59271961307802,reinspection due,13.07802,-59.27196
215,Bautista-Wilson Health Centre,polyclinic,10,st. lucy,2020-09-17,2021-01-19,58728841309899,followup ,13.09899,-58.72884
216,Jackson-Gordon Health Centre,community health center,0,st. andrew,2023-05-20,2023-11-27,59006581296594,missing,12.96594,-59.00658
217,Cummings-Todd Infirmary,health center,0,christ church,2019-06-13,2021-08-29,12928955884986,needs upgrade,12.92895,-58.84986
61be3b,Lee-Smith,missing,0,st. lucy,2022-12-12,2018-06-23,59075441313954,missing,13.13954,-59.07544
missing,Rivera LLC,health center,6,st. lucy,2019-12-05,2019-03-24,59270981303333,,13.03333,-59.27098
HF0220,Simmons Ltd Hospital,community health center,0,st. joseph,2018-02-19,2018-09-11,58906841317857,,13.17857,-58.90684
missing,King Wade and Barker Polyclinic,health center,312,st. lucy,2022-07-12,2021-08-26,12447584959,,12.447,-58.495
00222,Moore-Thomas-and-Mcfarland Hosp,clinic,0,st. george,2018-03-18,2024-03-20,58752621318028,needs upgrade,13.18028,-58.75262
223,Becker-Fernandez Medical Center,missing,495,st. peter,2023-05-27,2023-12-18,12840235873843,missing,12.84023,-58.73843
00224,Ramos-Ingram Medical Center,community health center,72,christ church,2022-05-15,2024-02-26,,followup ,13.0,-59.0
00225,Hall Lane and Hall Hospital,hospital,0,christ church,2021-03-14,2019-11-26,58736071311419,,13.11419,-58.73607
00225,Hall Lane and Hall Hosp,hospital,0,christ church,2021-03-14,2019-11-26,58736071311419,,13.11419,-58.73607
missing,Hall-Maxwell Hosp,community health center,331,st. lucy,2021-12-12,2024-04-26,59286911277224,missing,12.77224,-59.28691
227,Anderson-Osborn Health Centre,polyclinic,460,st. peter,2025-11-29,2019-05-08,,followup ,13.0,-59.0
missing,Nelson Ltd Hospital,clinic,298,st. joseph,2017-01-03,2019-01-10,,followup ,13.0,-59.0
229,Palmer Group Polyclinic,hospital,10,st. peter,2016-02-12,2023-07-24,13079055886479,needs upgrade,13.07905,-58.86479
229,Palmer Group Polyclinic,hospital,10,st. peter,2016-02-12,2023-07-24,13079055886479,needs upgrade,13.07905,-58.86479
c9cf95,Patterson Johnson and Richards,clinic,395,st. peter,2020-10-23,2018-05-03,13017584313,reinspection due,13.017,-58.431
231,Oliver-Henderson-and-Allen Hospital,community health center,103,missing,2022-06-25,2024-07-20,58734161282374,good,12.82374,-58.73416
missing,Smith Briggs and Vasquez Hospital,polyclinic,0,st. lucy,2016-06-08,2022-02-27,12573458555,,12.573,-45.855
HF0233,Ruiz PLC Infirmary,hospital,0,christ church,2023-03-03,2019-08-30,,,13.0,-59.0
HF0234,Thomas Ltd Polyclinic,polyclinic,197,st. george,2019-11-01,2019-03-09,58948911310651,,13.10651,-58.94891
235,Daniel PLC Health Centre,community health center,0,st. joseph,2021-07-19,2021-03-05,12575958538,needs upgrade,12.575,-95.853
00236,Schaefer Sanders and Wilson Infirmary,hospital,55,st. michael,2022-12-01,2018-04-14,,,13.0,-59.0
237,Stephenson Inc Clinic,missing,0,st. andrew,2016-01-06,2023-11-28,13113559830,,13.113,-55.983
398a27,Foster-Jones Infirmary,community health center,160,st. john,2022-10-07,2021-05-06,59063391284998,reinspection due,12.84998,-59.06339
HF0239,Henry Sharp and Mcguire Health Centre,clinic,393,st. john,2025-02-22,2024-01-09,125629584311,reinspection due,12.5629,-58.4311
missing,Vasquez-Deleon,hospital,268,st. michael,2024-09-21,2023-05-22,58829511273270,,12.7327,-58.82951
missing,Smith Norris and Mejia Health Centre,missing,10,st. george,2017-03-03,2023-12-22,59225121324146,needs upgrade,13.24146,-59.22512
missing,Wood Ltd Medical Center,community health center,282,st. lucy,2016-08-23,2020-09-30,131258566,reinspection due,13.12,-58.56
missing,Montgomery-Martinez Hosp,hospital,75,st. lucy,2024-11-08,2018-11-20,59151761302310,,13.0231,-59.15176
244,Ibarra-Neal Clinic,polyclinic,0,st. joseph,2019-12-19,2022-04-02,1317458506,,13.174,-58.506
244,Ibarra-Neal Clin,polyclinic,0,st. joseph,2019-12-19,2022-04-02,1317458506,,13.174,-58.506
HF0245,Wilkins Dominguez and Guerra,health center,220,st. lucy,2023-03-09,2025-08-06,,reinspection due,13.0,-59.0
00246,White Townsend and Green Infirmary,missing,0,st. george,2019-08-24,2021-06-12,58979551278830,,12.7883,-58.97955
a11eb6,Smith and Sons Hosp,missing,10,st. joseph,2024-02-24,2022-03-25,13153695904266,,13.15369,-59.04266
248,Love-Brown,missing,46,st. joseph,2025-11-06,2020-11-12,13267375881105,,13.26737,-58.81105
249,Blackburn-Garrett Hospital,community health center,42,christ church,2020-02-11,2018-02-11,13063595918586,,13.06359,-59.18586
missing,Perkins-Avila,community health center,429,st. michael,2016-09-12,2021-11-03,59161181327394,missing,13.27394,-59.16118
251,Davis LLC Polyclinic,health center,378,st. james,2020-10-19,2024-11-26,59193731291238,good,12.91238,-59.19373
252,Hernandez and Sons Hosp,community health center,10,st. james,2025-12-01,2025-09-23,,missing,13.0,-59.0
252,Hernandez and Sons Hosp,community health center,10,st. james,2025-12-01,2025-09-23,,missing,13.0,-59.0
253,Mcknight Allen and Horton,clinic,0,st. joseph,2022-09-27,2022-08-24,59101411324397,good,13.24397,-59.10141
missing,Gonzalez Smith and Davis,community health center,10,st. peter,2023-08-10,2023-01-24,,,13.0,-59.0
255,Walker-Bell Infirmary,clinic,0,st. lucy,2019-02-01,2020-11-12,,,13.0,-59.0
missing,Hicks PLC Hosp,missing,340,st. michael,2023-12-02,2022-01-01,58980171303068,,13.03068,-58.98017
missing,Sanders Hughes and Lawson Infirmary,health center,253,st. peter,2021-08-31,2019-10-22,59276021295668,followup ,12.95668,-59.27602
HF0258,Russell-Castro Clinic,health center,0,st. james,2025-10-06,2020-01-09,58763471300458,missing,13.00458,-58.76347
missing,Gordon Cooley and Day Hosp,health center,484,christ church,2019-06-25,2019-08-24,59067671273528,followup ,12.73528,-59.06767
HF0260,Weaver-Hoover Medical Center,community health center,36,st. james,2023-08-08,2025-04-12,13103758466,missing,13.103,-75.846
00261,Sherman-Pennington Medical Center,clinic,295,st. peter,2025-08-31,2025-07-07,12423658527,missing,12.423,-65.852
00262,Daugherty and Sons,community health center,420,missing,2017-01-31,2020-11-20,12808195879169,,12.80819,-58.79169
263,Morgan-Monroe,health center,285,st. michael,2024-05-15,2025-02-15,1259355928,followup ,12.593,-55.928
263,Morgan-Monroe,health center,285,st. michael,2024-05-15,2025-02-15,1259355928,followup ,12.593,-55.928
HF0264,Johnson Berg and Boone Infirmary,clinic,0,st. michael,2025-09-15,2020-02-09,13552584735,missing,13.552,-58.473
HF0264,Johnson Berg and Boone Infirmary,clinic,0,st. michael,2025-09-15,2020-02-09,13552584735,missing,13.552,-58.473
HF0265,Fletcher Ltd Polyclinic,community health center,374,st. george,2020-09-04,2024-01-07,,followup ,13.0,-59.0
266,Chambers Gray and Brooks,community health center,193,st. lucy,2020-09-16,2023-02-02,12531659242,,12.531,-65.924
missing,Williams-Bailey Medical Center,hospital,290,st. john,2025-09-29,2021-04-27,,missing,13.0,-59.0
00268,Lane-Hughes Hospital,polyclinic,130,st. michael,2025-01-29,2020-08-11,58991851322022,needs upgrade,13.22022,-58.99185
269,Harrell Walker and Mcintyre Hosp,community health center,481,st. james,2016-02-09,2020-04-05,,needs upgrade,13.0,-59.0
missing,Butler-Miller Polyclinic,community health center,0,st. george,2018-12-13,2022-09-19,,needs upgrade,13.0,-59.0
bfa6e8,Thompson-Riley Polyclinic,missing,266,st. peter,2018-01-29,2023-01-12,58746881290892,needs upgrade,12.90892,-58.74688
HF0272,French Group,polyclinic,234,st. lucy,2019-08-24,2021-05-27,59057861318418,,13.18418,-59.05786
00273,Joyce-Williams-and-Rodriguez Hospital,community health center,350,st. peter,2023-11-22,2020-04-09,58752821302106,good,13.02106,-58.75282
missing,Calderon George and Gonzales Medical Center,community health center,140,christ church,2016-12-07,2024-11-25,59163961284039,reinspection due,12.84039,-59.16396
missing,Calderon George and Gonzales Medical Center,community health center,140,christ church,2016-12-07,2024-11-25,59163961284039,reinspection due,12.84039,-59.16396
missing,Johnson-Thomas-and-Floyd Infirmary,community health center,10,st. john,2024-02-13,2021-12-23,12926745917478,,12.92674,-59.17478
7c888a,White LLC Clinic,clinic,20,missing,2017-08-06,2020-03-23,58709471320439,good,13.20439,-58.70947
277,Marsh-Villegas,community health center,0,st. george,2022-12-20,2018-09-17,1311859138,needs upgrade,13.118,-59.138
HF0278,Craig-Johnson-and-Boyd Medical Center,clinic,10,st. joseph,2022-02-01,2021-03-19,58707311293976,missing,12.93976,-58.70731
missing,Rodriguez LLC,health center,347,st. lucy,2019-09-05,2023-12-15,59230341315146,reinspection due,13.15146,-59.23034
00280,Preston Weaver and Fernandez Polyclinic,polyclinic,0,st. peter,2018-06-20,2024-09-24,58799411291989,missing,12.91989,-58.79941
00281,Lynch Jones and Estrada Infirmary,hospital,420,st. james,2020-04-05,2019-07-20,125050591559,,12.505,-59.1559
00282,Black-Clayton Medical Center,health center,0,st. joseph,2024-02-26,2023-01-03,13118591440,missing,13.118,-59.144
missing,Estrada-Group  NewLine,polyclinic,159,st. john,2024-08-20,2023-05-20,58793741287380,missing,12.8738,-58.79374
284,Martinez Group Clinic,missing,347,christ church,2025-02-03,2025-01-17,,,13.0,-59.0
missing,Bowman-Nash,clinic,424,st. peter,2022-08-06,2019-02-23,13143395917059,needs upgrade,13.14339,-59.17059
286,Johnson Buchanan and Bowen Medical Center,missing,437,st. joseph,2023-08-12,2021-11-24,58949841281328,reinspection due,12.81328,-58.94984
287,Tanner Ltd Medical Center,polyclinic,170,st. peter,2016-11-13,2023-05-11,12752845893762,reinspection due,12.75284,-58.93762
287,Tanner Ltd Medical Center,polyclinic,170,st. peter,2016-11-13,2023-05-11,12752845893762,reinspection due,12.75284,-58.93762
8ecbf5,Boyd-Davis-and-Elliott Medical Center,polyclinic,146,st. peter,2024-11-13,2024-06-01,58879851305313,needs upgrade,13.05313,-58.87985
289,Carpenter-Russell-and-Oliver Infirmary,hospital,0,st. james,2016-03-05,2018-12-24,59150501285441,missing,12.85441,-59.1505
missing,Estes-Cobb,missing,113,st. andrew,2018-05-09,2018-07-10,131156585553,,13.1156,-58.5553
HF0291,Clark-Kelly,health center,363,st. joseph,2019-04-29,,12956205882999,needs upgrade,12.9562,-58.82999
292,Garcia LLC Hosp,polyclinic,349,st. andrew,2019-09-15,2018-07-14,58754141274465,reinspection due,12.74465,-58.75414
989d88,Fisher-Salazar Health Centre,health center,0,st. michael,2024-05-13,2024-10-08,59025761271052,followup ,12.71052,-59.02576
missing,Murphy-Rodriguez Polyclinic,community health center,382,st. george,2016-10-06,2020-04-15,59214141279787,reinspection due,12.79787,-59.21414
295,Ferguson Ltd,clinic,306,st. andrew,2022-12-28,2020-02-09,13166065876883,,13.16606,-58.76883
296,Choi-Castillo-and-Baldwin Polyclinic,missing,10,st. james,2016-11-09,2024-03-08,,followup ,13.0,-59.0
296,Choi-Castillo-and-Baldwin Polyclinic,missing,10,st. james,2016-11-09,2024-03-08,,followup ,13.0,-59.0
297,Hill-Turner Health Centre,hospital,90,st. lucy,2025-09-21,2021-03-06,,followup ,13.0,-59.0
HF0298,Stewart Raymond and Mack Hosp,clinic,133,st. michael,2025-06-05,2022-07-09,13174895885732,,13.17489,-58.85732
missing,David Harris and Jacobson,health center,0,st. joseph,2025-04-10,2021-10-09,59054291314372,needs upgrade,13.14372,-59.05429
00300,Collins Group Clinic,health center,0,st. lucy,2019-06-02,2022-01-18,12969065924064,,12.96906,-59.24064
missing,Nelson-Inc Infirmary,clinic,366,christ church,2016-04-05,2023-12-10,58828831309784,reinspection due,13.09784,-58.82883
00302,Wilson Inc Medical Center,hospital,231,christ church,2022-08-12,2020-11-27,1344585518,missing,13.445,-85.518
missing,Calhoun-Gibbs Medical Center,hospital,124,st. joseph,2021-08-20,2025-07-27,58766641277968,,12.77968,-58.76664
HF0304,Fritz Inc Polyclinic,community health center,0,st. michael,2017-01-29,2022-01-16,,reinspection due,13.0,-59.0
89d929,Arnold LLC Clinic,missing,105,st. peter,2019-11-25,2023-06-07,12876895897436,good,12.87689,-58.97436
89d929,Arnold LLC Clin,missing,105,st. peter,2019-11-25,2023-06-07,12876895897436,good,12.87689,-58.97436
00306,Jacobs Sanchez and Hutchinson Infirmary,polyclinic,2,st. peter,2016-01-29,2018-03-19,58787731303776,,13.03776,-58.78773
e4fa0a,Wilson Brock and Silva Infirmary,polyclinic,213,st. joseph,2024-01-03,2022-08-30,,missing,13.0,-59.0
HF0308,Snyder-Reyes Infirmary,community health center,0,st. andrew,2021-10-05,2025-12-22,58733931312082,missing,13.12082,-58.73393
f9df2f,Baker Adams and Lin Medical Center,missing,151,st. andrew,2019-02-22,2018-06-10,13164159249,missing,13.164,-15.924
missing,Montgomery-Nichols,clinic,10,st. michael,2024-03-24,2022-12-10,59290241292340,,12.9234,-59.29024
missing,Moses and Sons Infirmary,health center,10,st. joseph,2022-03-19,2024-04-24,59297081306104,,13.06104,-59.29708
312,Goodman Hayes and Miller,hospital,436,st. john,2024-01-29,2020-04-24,,,13.0,-59.0
313,Aguilar West and White,health center,0,st. peter,2020-08-15,2019-08-09,58803551286355,,12.86355,-58.80355
00314,Garcia Ltd Clinic,community health center,0,st. george,2020-10-26,2023-10-26,59222291304153,missing,13.04153,-59.22229
315,Green-Chen Medical Center,missing,141,st. michael,2025-11-04,2018-12-17,13053585232,missing,13.053,-58.523
missing,Harrington-Carrillo-and-Tucker,community health center,10,st. andrew,2022-06-14,2023-10-14,58976081318949,missing,13.18949,-58.97608
317,Rivera-Hernandez-and-Murphy,community health center,12,st. joseph,2023-06-22,2020-10-30,59283291290553,needs upgrade,12.90553,-59.28329
HF0318,Gomez-Brown,health center,327,st. george,2022-12-02,2022-06-10,,,13.0,-59.0
missing,Gross Robbins and Jones Polyclinic,missing,0,christ church,2020-02-15,2019-09-10,12552859437,,12.552,-85.943
HF0320,Holmes Salas and Townsend,polyclinic,0,st. michael,2024-10-10,2025-06-21,12975685885621,reinspection due,12.97568,-58.85621
HF0321,Wade LLC Polyclinic,community health center,68,missing,2021-02-09,2025-05-07,58846651313860,missing,13.1386,-58.84665
00322,Livingston-Lewis,missing,131,st. michael,2023-11-10,2020-08-09,12474259641,needs upgrade,12.474,-25.964
missing,Dixon Ltd Polyclinic,clinic,361,christ church,2024-04-29,2018-03-23,12522559041,reinspection due,12.522,-55.904
f065bc,Parsons PLC Medical Center,community health center,412,missing,2025-12-30,2018-12-14,59129661313049,missing,13.13049,-59.12966
325,Townsend-Pena Infirmary,health center,215,christ church,2023-02-23,2018-06-07,125817584644,,12.5817,-58.4644
326,Bernard-Simpson Health Centre,health center,383,st. andrew,2020-03-22,2025-06-17,131135585144,needs upgrade,13.1135,-58.5144
327,Ellis LLC Health Centre,missing,57,st. peter,2016-01-03,2020-08-14,,missing,13.0,-59.0
missing,Russell-Benitez-and-Waters Hospital,missing,214,st. james,2025-04-05,2024-06-28,,,13.0,-59.0
missing,Nelson Tucker and Estes,community health center,127,missing,2020-07-19,2024-08-30,59299831291303,reinspection due,12.91303,-59.29983
HF0330,Wilson-Zavala Infirmary,health center,0,st. john,2019-03-27,2024-02-06,59130341329299,followup ,13.29299,-59.13034
HF0330,Wilson-Zavala Infirmary,health center,0,st. john,2019-03-27,2024-02-06,59130341329299,followup ,13.29299,-59.13034
missing,Boone Shah and Johnson Hospital,clinic,0,st. lucy,2023-02-11,2018-09-13,59269021299429,missing,12.99429,-59.26902
00332,Johnson Park and Calderon Clinic,polyclinic,10,st. john,2024-10-25,2023-04-14,12914255924324,missing,12.91425,-59.24324
missing,Cooper-Brewer,health center,6,st. lucy,2016-05-29,2023-05-24,59050191287089,,12.87089,-59.05019
b9ad32,Martinez Mendoza and Horton Infirmary,health center,0,st. lucy,2022-09-10,2025-12-30,58718661306736,good,13.06736,-58.71866
2e45c5,Payne Ware and Liu Hospital,health center,0,st. john,2023-11-07,2025-04-26,59298591271337,good,12.71337,-59.29859
37666a,Hall Group Infirmary,missing,294,st. john,2018-07-28,2024-10-18,13845585329,missing,13.845,-58.532
decde8,Simmons-Washington,missing,455,st. john,2022-12-19,2018-09-13,,followup ,13.0,-59.0
decde8,Simmons-Washington,missing,455,st. john,2022-12-19,2018-09-13,,followup ,13.0,-59.0
338,Moreno PLC,polyclinic,10,missing,2017-03-10,2024-09-25,59003271300152,good,13.00152,-59.00327
339,Gilbert-Phillips Polyclinic,community health center,65,st. joseph,2019-12-29,2024-06-07,,needs upgrade,13.0,-59.0
340,Odom-Inc,hospital,127,christ church,2019-04-13,2020-04-21,59206381281452,needs upgrade,12.81452,-59.20638
HF0341,Harper Russell and Manning Polyclinic,health center,102,st. lucy,2025-07-26,2020-09-11,12872415907582,reinspection due,12.87241,-59.07582
9c0c31,Baldwin-Anderson-and-Dodson Infirmary,polyclinic,103,st. joseph,2020-09-16,2025-06-08,,,13.0,-59.0
9c0c31,Baldwin-Anderson-and-Dodson Infirmary,polyclinic,103,st. joseph,2020-09-16,2025-06-08,,,13.0,-59.0
64f55a,Hudson-Perez Medical Center,community health center,462,st. lucy,2017-03-10,2022-06-15,,good,13.0,-59.0
missing,Neal Lopez and Madden Hospital,missing,0,st. george,2018-08-24,2020-01-31,59004391309140,,13.0914,-59.00439
missing,Perez-Evans Polyclinic,missing,0,st. andrew,2019-03-08,2018-12-31,58752351317215,,13.17215,-58.75235
abfc47,Klein PLC Medical Center,hospital,10,st. john,2017-02-28,2023-08-16,,,13.0,-59.0
HF0347,Barrett-Simpson Medical Center,community health center,10,st. michael,2023-03-09,2019-05-11,58715581286586,,12.86586,-58.71558
HF0347,Barrett-Simpson Medical Center,community health center,10,st. michael,2023-03-09,2019-05-11,58715581286586,,12.86586,-58.71558
00348,Carr-Prince Polyclinic,hospital,258,st. george,2020-07-01,,58815921313197,missing,13.13197,-58.81592
fe4690,Dominguez Group,missing,108,st. michael,2024-11-12,2025-01-06,58892611312535,,13.12535,-58.89261
350,Martinez-Foster Health Centre,hospital,0,st. john,2023-12-11,2022-01-17,59110381270656,missing,12.70656,-59.11038
missing,Butler-Young,health center,204,st. george,2021-11-08,2019-10-09,,good,13.0,-59.0
68cddd,Whitney LLC Medical Center,hospital,331,missing,2021-05-20,2025-11-20,12493159241,missing,12.493,-15.924
00353,Graves Carlson and Thomas,community health center,4,st. lucy,2017-02-11,2021-12-26,,,13.0,-59.0
00353,Graves Carlson and Thomas,community health center,4,st. lucy,2017-02-11,2021-12-26,,,13.0,-59.0
d9fb65,Sanchez Solis and Mercado Health Centre,missing,256,st. john,2017-11-30,2020-12-26,,,13.0,-59.0
missing,Palmer-Williams Hospital,health center,258,st. peter,2022-12-30,2019-05-18,,,13.0,-59.0
356,Carey Fields and Kelly Infirmary,clinic,0,christ church,2021-04-12,2019-07-22,59249951310780,missing,13.1078,-59.24995
missing,Brooks Inc NewLine,community health center,372,st. joseph,2023-08-21,2022-10-09,,,13.0,-59.0
358,Galvan-and-Sons Health Centre,missing,0,st. andrew,2016-12-22,2021-07-01,58901651293739,missing,12.93739,-58.90165
04c0be,Cantrell LLC,community health center,10,st. andrew,2017-12-28,2022-02-26,124432585111,,12.4432,-58.5111
360,Nguyen Ltd,hospital,0,st. john,2020-08-10,2021-11-16,58909761283800,needs upgrade,12.838,-58.90976
430d44,Hoover-Kelley Hosp,health center,0,christ church,2017-10-05,2025-09-01,,reinspection due,13.0,-59.0
b7604e,Johnson Reed and Thompson,community health center,0,st. george,2021-06-15,2025-09-29,,reinspection due,13.0,-59.0
missing,Harrell-Jones Health Centre,community health center,429,st. john,2023-08-18,2020-10-07,12950825914681,,12.95082,-59.14681
missing,Harrell-Jones Health Centre,community health center,429,st. john,2023-08-18,2020-10-07,12950825914681,,12.95082,-59.14681
HF0364,Collins Ltd Medical Center,clinic,186,christ church,2024-06-01,2020-11-01,,,13.0,-59.0
missing,Spencer-Scott PolyclinicNewLine,health center,164,st. michael,2022-04-09,2018-04-17,,,13.0,-59.0
missing,Greene Steele and Kline Polyclinic,clinic,349,st. john,2022-01-22,2024-03-24,59080171313039,,13.13039,-59.08017
00367,Harrison Zuniga and Smith,community health center,0,st. george,2018-05-16,2021-07-18,59093581298796,reinspection due,12.98796,-59.09358
HF0368,Ruiz Harris and Chavez Infirmary,health center,0,st. lucy,2017-06-18,2018-05-19,58944701291277,missing,12.91277,-58.9447
369,Taylor LLC Health Centre,community health center,429,st. george,2021-08-18,2019-12-14,59218811301465,good,13.01465,-59.21881
370,Montgomery Taylor and Riggs,clinic,367,missing,2023-08-25,2020-09-22,58973391314215,,13.14215,-58.97339
missing,Jackson-Evans Polyclinic,community health center,10,st. george,2021-04-27,2025-08-06,,,13.0,-59.0
missing,Collins-Barrett Clinic,polyclinic,468,missing,2024-12-23,2018-04-15,59239331294877,needs upgrade,12.94877,-59.23933
373,Lopez Ltd Medical Center,missing,461,st. john,2018-12-04,2024-12-24,,,13.0,-59.0
missing,Hernandez Turner and Hoffman Infirmary,community health center,0,missing,2023-08-12,2025-03-23,59297021291991,,12.91991,-59.29702
missing,Hernandez Turner and Hoffman Infirmary,community health center,0,missing,2023-08-12,2025-03-23,59297021291991,,12.91991,-59.29702
missing,Henderson-PLC,polyclinic,460,st. lucy,2022-07-25,2020-01-19,59232211296951,,12.96951,-59.23221
7c07f5,Johnson Fowler and Lowe Polyclinic,hospital,424,st. joseph,2019-04-12,2023-08-19,58732841282147,needs upgrade,12.82147,-58.73284
missing,Owens-Rush Infirmary,community health center,374,christ church,2016-09-25,2018-05-23,59032721284887,needs upgrade,12.84887,-59.03272
378,Stewart Inc Polyclinic,missing,363,st. joseph,2018-03-23,2024-12-23,58786171323283,,13.23283,-58.78617
missing,Zavala-Wood Hosp,clinic,466,st. lucy,2020-08-10,2018-08-03,58842761328238,,13.28238,-58.84276
380,Mason-Wood Medical Center,health center,205,st. michael,2017-04-29,2019-03-13,13104958446,followup ,13.104,-95.844
381,Gross-LLC Health Centre,community health center,77,st. john,2022-03-24,2019-09-12,58930421289431,good,12.89431,-58.93042
382,Morgan Mcmahon and Yates,health center,36,st. michael,2021-11-01,2022-11-05,,,13.0,-59.0
383,Smith Inc Polyclinic,hospital,10,st. joseph,2017-11-19,2024-05-15,58942831329661,good,13.29661,-58.94283
missing,Villarreal Inc,polyclinic,250,st. george,2020-07-12,2022-01-13,125714591738,,12.5714,-59.1738
385,Wallace LLC Polyclinic,community health center,109,st. peter,2020-10-08,2018-10-31,58909311271540,good,12.7154,-58.90931
386,Singh-Patel-and-Taylor Polyclinic,hospital,0,st. lucy,2019-05-25,2023-12-14,59164741271167,missing,12.71167,-59.16474
missing,Owen Washington and Hayes,community health center,68,st. peter,2022-08-25,2023-11-30,58771661278716,reinspection due,12.78716,-58.77166
missing,Rodriguez Group Clinic,health center,0,st. michael,2024-01-05,2021-05-26,,missing,13.0,-59.0
missing,Rodriguez Group Clin,health center,0,st. michael,2024-01-05,2021-05-26,,missing,13.0,-59.0
389,Kelly Inc,community health center,0,st. lucy,2024-06-09,2024-09-11,13104675878403,missing,13.10467,-58.78403
390,Frazier Group Polyclinic,community health center,330,st. james,2025-02-28,2020-01-29,,followup ,13.0,-59.0
00391,Gonzalez-Riley Infirmary,polyclinic,10,st. andrew,2017-02-28,2020-08-21,,good,13.0,-59.0
00391,Gonzalez-Riley Infirmary,polyclinic,10,st. andrew,2017-02-28,2020-08-21,,good,13.0,-59.0
missing,Long King and Case Health Centre,clinic,498,st. joseph,2016-01-20,2024-10-31,59090201311827,good,13.11827,-59.0902
393,Collins Jenkins and Gates,polyclinic,116,st. peter,2020-08-29,2023-11-05,13186825914101,needs upgrade,13.18682,-59.14101
HF0394,Turner Holt and Gardner,hospital,0,missing,2020-07-09,2024-01-09,124827585926,,12.4827,-58.5926
HF0395,Moore-Fuller Hosp,community health center,268,christ church,2017-11-21,2023-04-14,13429585012,needs upgrade,13.429,-58.501
396,Alvarez-Anderson,polyclinic,56,st. lucy,2024-07-16,2021-08-24,59121681279446,good,12.79446,-59.12168
396,Alvarez-Anderson,polyclinic,56,st. lucy,2024-07-16,2021-08-24,59121681279446,good,12.79446,-59.12168
397,Gibson Jordan and Novak Infirmary,hospital,0,st. michael,2021-03-12,2019-11-23,59015131324710,missing,13.2471,-59.01513
missing,Taylor Rodriguez and Anderson Medical Center,polyclinic,0,st. lucy,2020-05-02,2019-05-12,59259341326010,,13.2601,-59.25934
HF0399,Rangel Blankenship and Farrell Polyclinic,clinic,132,st. peter,2025-06-23,2018-01-22,58976601322111,missing,13.22111,-58.9766
00400,Thompson-Griffin Hospital,hospital,0,st. james,2019-11-21,2020-06-04,59184391278303,reinspection due,12.78303,-59.18439
HF0401,Short LLC,community health center,159,st. peter,,2023-04-07,13153959243,,13.153,-95.924
402,Wilson-Jones NewLine,polyclinic,66,christ church,2019-03-15,2020-03-02,59094401287220,needs upgrade,12.8722,-59.0944
HF0403,Evans-Davis-and-Todd Clinic,community health center,10,st. john,2016-07-24,2019-06-03,12717405919067,missing,12.7174,-59.19067
HF0403,Evans-Davis-and-Todd Clin,community health center,10,st. john,2016-07-24,2019-06-03,12717405919067,missing,12.7174,-59.19067
missing,Jackson-Gray,community health center,92,christ church,2022-08-10,2022-08-15,58853481325395,,13.25395,-58.85348
HF0405,Adams Inc Hosp,polyclinic,0,st. andrew,2020-06-01,2025-05-25,,,13.0,-59.0
missing,Haas Collins and Paul Polyclinic,health center,342,st. james,2022-12-14,2023-08-30,124332585345,,12.4332,-58.5345
00407,Fletcher and Sons,missing,283,st. john,2021-04-17,2018-07-17,12801855889234,,12.80185,-58.89234
408,Hall-Jones Health Centre,community health center,397,st. lucy,2017-10-05,2022-05-12,,reinspection due,13.0,-59.0
missing,Rios Ramirez and Miller Health Centre,hospital,0,st. peter,2019-06-12,2024-11-07,58701821327394,reinspection due,13.27394,-58.70182
00410,Peterson Wells and Berry,clinic,121,st. peter,2020-08-17,2018-12-14,13196125902761,reinspection due,13.19612,-59.02761
411,Wallace-Greene Hosp,missing,0,st. james,2017-03-10,2022-11-25,131416585015,,13.1416,-58.5015
missing,Perez-Morton Medical Center,polyclinic,0,christ church,2022-03-06,2020-04-21,58756931283845,needs upgrade,12.83845,-58.75693
413,Gonzalez LLC Health Centre,hospital,266,st. joseph,2023-06-26,2025-11-28,59098601327928,,13.27928,-59.0986
414,Collins and Sons,hospital,231,christ church,2019-05-23,,12833045874019,,12.83304,-58.74019
00415,Soto-Lopez-and-Hampton Hosp,community health center,155,christ church,2017-02-06,2023-11-11,59191161280398,reinspection due,12.80398,-59.19116
416,Cruz LLC,community health center,199,st. lucy,2024-04-26,2018-02-01,12535459150,missing,12.535,-45.915
e639bc,Harmon-LLC,hospital,10,st. peter,2024-10-25,2024-07-26,59226191279780,reinspection due,12.7978,-59.22619
418,Page Smith and Chase,health center,394,st. james,2025-09-13,2022-10-24,59232421309202,,13.09202,-59.23242
missing,Pearson-Gonzalez Medical Center,clinic,0,st. joseph,2018-02-17,2019-11-27,12756755877403,,12.75675,-58.77403
00420,Brown-Wilcox,health center,0,st. joseph,2021-09-09,2018-01-30,125123584525,good,12.5123,-58.4525
missing,Gomez-Foster Infirmary,polyclinic,458,st. james,2021-03-27,2019-08-11,12944695917082,good,12.94469,-59.17082
7dc1f6,Salazar Jackson and Garcia Hosp,clinic,75,st. john,2022-05-12,2020-03-07,12444659639,needs upgrade,12.444,-65.963
423,Young-Boyd Hospital,hospital,15,st. john,2022-05-10,2018-12-29,131234584223,,13.1234,-58.4223
0b8694,Mcgee Inc Medical Center,clinic,207,st. john,2019-04-13,,59179701314102,reinspection due,13.14102,-59.1797
425,Morgan Richardson and Cunningham Medical Center,health center,485,st. michael,2021-05-04,2023-03-20,,reinspection due,13.0,-59.0
425,Morgan Richardson and Cunningham Medical Center,health center,485,st. michael,2021-05-04,2023-03-20,,reinspection due,13.0,-59.0
00426,Martinez-Grant,clinic,179,st. james,2019-02-05,2020-12-01,1309584447,reinspection due,13.095,-84.447
00427,Deleon Group Infirmary,missing,299,st. peter,2021-04-10,2025-10-02,131435591643,missing,13.1435,-59.1643
HF0428,Parrish Curtis and Martinez,clinic,106,st. michael,2018-02-02,2024-11-28,59178421273449,good,12.73449,-59.17842
00429,Brown and Sons Medical Center,hospital,169,st. peter,2021-06-06,2022-11-15,59205301312704,missing,13.12704,-59.2053
00430,Smith-PLC Polyclinic,clinic,244,missing,2018-02-17,2024-09-14,59079531303076,needs upgrade,13.03076,-59.07953
missing,Hernandez-Smith Clinic,missing,0,st. james,2018-12-07,2020-11-03,58878081313471,,13.13471,-58.87808
missing,Hernandez-Smith Clin,missing,0,st. james,2018-12-07,2020-11-03,58878081313471,,13.13471,-58.87808
1cb327,Daniels-and-Sons Clinic,clinic,7,st. george,2021-12-31,2022-02-03,,missing,13.0,-59.0
1cb327,Daniels-and-Sons Clin,clinic,7,st. george,2021-12-31,2022-02-03,,missing,13.0,-59.0
missing,Ross West and Cole,missing,21,st. lucy,2020-12-22,2025-01-10,13159591637,reinspection due,13.159,-59.163
434,Weaver-Lee-and-Garrett,health center,0,st. peter,2017-06-22,2021-10-25,59046481322554,,13.22554,-59.04648
3fbdc3,Rodriguez-Inc Medical Center,hospital,273,st. lucy,2024-07-16,2018-01-22,59217561281057,followup ,12.81057,-59.21756
missing,Hart-Sparks-and-Zhang Hospital NewLine,clinic,0,st. peter,2017-12-16,2023-03-07,58945101309292,followup ,13.09292,-58.9451
missing,Robinson-Barton PolyclinicNewLine,community health center,238,st. peter,2021-07-23,2019-12-16,1342059233,needs upgrade,13.42,-59.233
00438,Clark-Garrison Infirmary,missing,305,st. michael,2025-01-08,2022-07-01,,,13.0,-59.0
missing,Green and Sons,hospital,212,st. andrew,2020-01-30,2025-02-24,12917185902933,missing,12.91718,-59.02933
7a911e,Hernandez-Stokes Hosp,polyclinic,0,st. george,2020-05-29,2021-11-25,58778331317376,followup ,13.17376,-58.77833
441,Farley Group,missing,167,st. joseph,2017-03-24,2021-03-03,58828961288274,needs upgrade,12.88274,-58.82896
00442,Montgomery Clements and Spears,polyclinic,0,st. james,2020-12-15,2021-12-15,58782881280241,,12.80241,-58.78288
443,Walton Inc,health center,118,st. james,2016-10-19,2022-11-26,59100491329930,needs upgrade,13.2993,-59.10049
00444,Ramos-Johnson Medical Center,community health center,62,st. george,2022-01-07,2024-07-03,59288521314393,,13.14393,-59.28852
aa255b,Walton-Kane-and-Blackwell Clinic,health center,444,st. michael,2017-06-01,2018-09-10,,needs upgrade,13.0,-59.0
00446,Cantu Forbes and Andrade,hospital,157,st. james,2019-01-04,2022-10-17,59161631283876,needs upgrade,12.83876,-59.16163
missing,Rasmussen-Lutz-and-Osborne Infirmary,polyclinic,437,st. michael,2017-12-11,2018-01-23,125931584437,,12.5931,-58.4437
448,Farley Inc,polyclinic,85,missing,2025-01-10,2022-07-30,59275781321841,,13.21841,-59.27578
HF0449,Lawson Petersen and Pitts Health Centre,clinic,35,st. john,2023-11-28,2025-08-21,13013515927673,,13.01351,-59.27673
HF0450,Weber-Jackson Health Centre,hospital,0,st. george,2017-10-04,2018-07-13,137215915,reinspection due,13.72,-15.91
missing,Rowe Ltd Clinic,missing,26,st. george,2018-07-28,2021-05-10,12512959827,missing,12.512,-95.982
missing,Vasquez Ltd,polyclinic,0,st. lucy,2017-04-14,2020-01-08,58795791314988,missing,13.14988,-58.79579
453,Acevedo-Carr Medical Center,community health center,100,st. andrew,2020-02-01,2021-09-07,58999321295591,reinspection due,12.95591,-58.99932
454,Smith Landry and Reed NewLine,missing,59,st. michael,2023-09-26,2022-06-08,58861171303336,followup ,13.03336,-58.86117
455,Pierce Sosa and Jones Polyclinic,polyclinic,0,st. james,2024-10-13,,58847971311096,,13.11096,-58.84797
00456,Arnold-Ramirez Polyclinic,hospital,0,christ church,2022-12-29,2022-05-12,59004191311835,missing,13.11835,-59.00419
HF0457,Fisher-Morrow,community health center,263,christ church,2016-01-22,2021-04-16,12974185883004,needs upgrade,12.97418,-58.83004
458,Thomas Bradshaw and Nelson,missing,0,st. george,2025-03-25,2024-07-03,,reinspection due,13.0,-59.0
HF0459,Ray-Perez Clinic,health center,225,st. michael,2024-07-06,2024-04-14,12785705877835,followup ,12.7857,-58.77835
460,Jones Black and Brown,community health center,255,st. george,2020-04-09,2018-07-31,58720011303075,followup ,13.03075,-58.72001
missing,Andrews-Harrison Health Centre,clinic,354,missing,2022-01-18,2018-03-31,13203645915607,reinspection due,13.20364,-59.15607
missing,Ward Davis and Anderson,polyclinic,85,christ church,2019-06-08,2022-02-16,,,13.0,-59.0
missing,Strickland PLC Polyclinic,hospital,71,st. james,2020-03-07,2024-04-27,58727421310856,missing,13.10856,-58.72742
missing,Strickland PLC Polyclinic,hospital,71,st. james,2020-03-07,2024-04-27,58727421310856,missing,13.10856,-58.72742
00464,Thompson Farrell and Chambers,clinic,425,st. george,2022-07-11,2025-06-29,59251451283099,followup ,12.83099,-59.25145
465,Reese Inc,community health center,10,missing,2016-04-02,2018-11-04,,missing,13.0,-59.0
466,Gregory Ltd Clinic,missing,0,st. peter,2024-09-07,2024-03-05,59210651280492,,12.80492,-59.21065
467,Garcia-Randall Polyclinic,clinic,0,st. james,2023-11-28,2018-02-24,,reinspection due,13.0,-59.0
missing,Ross-Salas,clinic,0,st. george,2020-04-14,2024-12-29,12759465916030,followup ,12.75946,-59.1603
469,Gray Ltd Polyclinic,clinic,165,missing,2023-04-28,2020-04-02,12550584340,needs upgrade,12.55,-58.434
470,Garcia-Ellis,community health center,97,missing,2025-11-24,2025-11-25,,needs upgrade,13.0,-59.0
471,Allen Villanueva and Wilson Medical Center,polyclinic,127,st. peter,2020-12-15,2018-12-30,58725031311447,,13.11447,-58.72503
472,Wheeler-Hill-and-Conley Medical Center,missing,12,christ church,2025-06-22,2022-06-18,59107371270924,reinspection due,12.70924,-59.10737
472,Wheeler-Hill-and-Conley Medical Center,missing,12,christ church,2025-06-22,2022-06-18,59107371270924,reinspection due,12.70924,-59.10737
88b060,Stokes and Sons Clinic,clinic,445,st. michael,2024-10-10,2019-07-13,,,13.0,-59.0
88b060,Stokes and Sons Clin,clinic,445,st. michael,2024-10-10,2019-07-13,,,13.0,-59.0
c15ed9,Hardy-Johnston Polyclinic,polyclinic,18,st. michael,2019-12-02,2025-07-08,12858475881435,,12.85847,-58.81435
c15ed9,Hardy-Johnston Polyclinic,polyclinic,18,st. michael,2019-12-02,2025-07-08,12858475881435,,12.85847,-58.81435
475,Allen Haley and Pham,clinic,0,missing,2016-12-09,2025-12-23,13412591112,missing,13.412,-59.111
missing,Mitchell-LLC Hospital,clinic,0,st. michael,2022-07-22,2018-12-18,59042811298220,,12.9822,-59.04281
missing,Mitchell-LLC Hospital,clinic,0,st. michael,2022-07-22,2018-12-18,59042811298220,,12.9822,-59.04281
missing,Gonzalez Stewart and Serrano Polyclinic NewLine,health center,0,st. joseph,,2025-01-14,13925585610,,13.925,-58.561
missing,Rivers-Frederick Health Centre,missing,10,christ church,,2018-03-07,59123711277676,good,12.77676,-59.12371
missing,Rivers-Frederick Health Centre,missing,10,christ church,,2018-03-07,59123711277676,good,12.77676,-59.12371
479,Maldonado and Sons Polyclinic,community health center,289,st. lucy,2021-04-30,2018-12-06,59034591291525,,12.91525,-59.03459
480,Chase-Ford Clinic,clinic,10,st. james,2025-12-16,2024-07-24,58897321286913,,12.86913,-58.89732
HF0481,Singh LLC Health Centre,polyclinic,414,missing,2019-07-09,2021-03-03,59073131287891,good,12.87891,-59.07313
482,Cooper-PLC Health Centre,community health center,29,st. george,2017-12-12,2019-12-17,13753585923,followup ,13.753,-58.592
missing,Howell PLC Polyclinic,clinic,43,st. andrew,2018-07-15,2019-01-07,13004925883439,,13.00492,-58.83439
00484,Downs PLC Hospital,community health center,64,missing,2018-07-19,2022-04-15,58829741328685,missing,13.28685,-58.82974
485,Owen-Franco,community health center,365,st. james,2021-10-01,2018-12-15,12916035911469,,12.91603,-59.11469
00486,Cochran-Dorsey-and-Chapman,community health center,0,st. joseph,2018-10-27,2024-09-25,59239681329368,missing,13.29368,-59.23968
487,Lewis Group,hospital,0,st. michael,2016-10-03,2022-02-09,58988451297456,followup ,12.97456,-58.98845
HF0488,Foster Inc Clinic,community health center,159,missing,2023-10-25,2025-04-04,,needs upgrade,13.0,-59.0
HF0488,Foster Inc Clin,community health center,159,missing,2023-10-25,2025-04-04,,needs upgrade,13.0,-59.0
missing,Harris-Pope Clinic,hospital,458,st. john,2017-11-14,2025-04-06,13843585241,followup ,13.843,-58.524
HF0490,Ryan Maxwell and Ruiz Polyclinic,community health center,0,missing,2021-05-19,2024-12-07,,good,13.0,-59.0
00491,Leon and Sons Polyclinic,missing,10,missing,2021-04-18,2021-06-23,59260661295039,followup ,12.95039,-59.26066
5de4ab,Moses LLC Hosp,missing,0,st. john,2021-11-11,2019-09-24,12923765877587,,12.92376,-58.77587
missing,Garrett Copeland and Bell Infirmary,clinic,0,christ church,2025-09-14,2025-02-02,58809931299673,,12.99673,-58.80993
494,Melendez Woods and Booker Medical Center,polyclinic,312,st. john,2025-07-31,2023-08-22,58836551312550,missing,13.1255,-58.83655
6a600f,Hernandez-Caldwell Polyclinic,health center,0,st. john,2024-04-23,2020-08-05,59141391284999,missing,12.84999,-59.14139
HF0496,Ball Acosta and Juarez Hospital,health center,424,st. joseph,2018-03-16,2022-01-29,59278011329571,good,13.29571,-59.27801
00497,Webster Inc,community health center,269,st. joseph,2022-08-27,2019-04-09,59164791324162,followup ,13.24162,-59.16479
HF0498,Jensen Smith and Kelly,health center,10,st. james,2025-06-07,2021-02-04,125939584545,,12.5939,-58.4545
HF0499,Salazar-Smith,health center,318,missing,2023-02-14,2025-06-08,59296071285739,needs upgrade,12.85739,-59.29607
500,Castaneda Ltd,hospital,303,st. michael,2019-05-08,2024-07-19,58995691273864,followup ,12.73864,-58.99569
500,Castaneda Ltd,hospital,303,st. michael,2019-05-08,2024-07-19,58995691273864,followup ,12.73864,-58.99569
501,Hartman PLC,hospital,0,christ church,2022-07-26,2025-05-08,58888891309820,needs upgrade,13.0982,-58.88889
d26f6d,Brown Warren and Coffey,missing,166,missing,2018-03-28,2020-05-20,58719711298946,,12.98946,-58.71971
503,Stout Robinson and Harrison Clinic,polyclinic,450,st. george,2018-04-11,2025-06-06,59195301278152,,12.78152,-59.1953
missing,Mullen Larsen and Patterson Infirmary,hospital,354,christ church,2022-12-20,2022-11-26,59104071299522,followup ,12.99522,-59.10407
missing,Mullen Larsen and Patterson Infirmary,hospital,354,christ church,2022-12-20,2022-11-26,59104071299522,followup ,12.99522,-59.10407
HF0505,Dunlap-Dunn Infirmary,clinic,154,st. peter,2021-12-08,2020-11-26,59239371274561,missing,12.74561,-59.23937
00506,Hall-Sexton Infirmary,missing,0,st. lucy,2022-07-29,,,,13.0,-59.0
HF0507,Stevens-Benson,health center,0,st. andrew,2017-02-06,2025-05-25,12945585900941,,12.94558,-59.00941
00508,Phillips-Montgomery-and-Jordan Polyclinic,clinic,0,st. andrew,2022-01-25,2022-01-20,59057821300570,missing,13.0057,-59.05782
HF0509,Taylor and Sons Medical Center,hospital,0,st. michael,2016-08-02,2021-02-08,125332585642,,12.5332,-58.5642
HF0509,Taylor and Sons Medical Center,hospital,0,st. michael,2016-08-02,2021-02-08,125332585642,,12.5332,-58.5642
missing,Wilson-Wallace Infirmary,health center,0,st. lucy,2023-05-21,2020-01-17,12729455912118,,12.72945,-59.12118
00511,Booker-Hill Medical Center NewLine,clinic,0,st. george,2019-06-01,2024-07-13,58728461300114,good,13.00114,-58.72846
missing,Hudson-Gilbert,community health center,0,st. james,2022-11-20,2020-07-10,13354584728,,13.354,-58.472
e43171,Schneider Ltd,community health center,10,st. james,2022-03-21,2022-04-25,13129235884085,,13.12923,-58.84085
missing,Turner Lin and Harris Health Centre,polyclinic,0,st. andrew,2023-12-15,2023-12-31,58851941277918,,12.77918,-58.85194
74922c,Frazier Inc Health Centre,community health center,10,st. andrew,2025-05-24,2019-08-14,59261441288257,missing,12.88257,-59.26144
74922c,Frazier Inc Health Centre,community health center,10,st. andrew,2025-05-24,2019-08-14,59261441288257,missing,12.88257,-59.26144
516,Barton Ltd,missing,37,st. peter,2019-09-19,2025-10-26,59004391308436,needs upgrade,13.08436,-59.00439
HF0517,Lee-Johnson-and-Alvarez Health Centre,health center,244,st. peter,2016-07-09,2023-04-23,59125591282834,,12.82834,-59.12559
HF0518,Hicks PLC Clinic,polyclinic,479,st. andrew,2016-05-14,2018-05-17,58744601292782,,12.92782,-58.7446
9f3f6a,Stein Group Infirmary,missing,484,st. michael,2019-12-26,2020-08-12,58913601306931,needs upgrade,13.06931,-58.9136
520,Gonzalez-PLC Hosp,polyclinic,469,st. george,2025-01-10,2018-02-20,13193945882995,missing,13.19394,-58.82995
missing,Simon-and-Sons,community health center,402,st. joseph,2025-01-25,2023-04-12,125138585427,needs upgrade,12.5138,-58.5427
HF0522,Dennis Inc,health center,329,st. lucy,2023-11-03,2025-12-24,59119301306078,good,13.06078,-59.1193
523,Williams-Duarte,hospital,396,st. peter,2023-01-29,2018-03-18,12810555921630,reinspection due,12.81055,-59.2163
HF0524,Mcdaniel-Baker-and-Bartlett Infirmary,clinic,10,st. michael,2017-03-30,2019-03-03,58922571290289,good,12.90289,-58.92257
525,Walters-Giles-and-Lee Polyclinic,missing,264,st. lucy,2023-02-26,2020-05-20,,,13.0,-59.0
HF0526,Cummings Chen and Webb NewLine,hospital,261,st. michael,2017-09-21,2024-06-19,,,13.0,-59.0
missing,Ward Mitchell and Johnson,missing,0,st. peter,2022-01-01,2021-03-04,1342659179,needs upgrade,13.426,-59.179
528,Meadows Morse and Joyce Clinic,clinic,450,christ church,2025-03-16,2018-10-11,58957031277166,needs upgrade,12.77166,-58.95703
00529,Ramirez-Gutierrez,community health center,297,st. peter,2024-10-02,,59182641279594,needs upgrade,12.79594,-59.18264
missing,Chambers-Olson Health Centre,community health center,0,st. peter,2025-09-13,2021-10-05,12541059921,,5.992,-12.541
missing,Turner-Logan-and-Decker Infirmary,community health center,306,christ church,2022-01-27,2022-09-19,12504859023,reinspection due,12.504,-85.902
532,Harris-Love Hospital,community health center,0,st. lucy,2020-04-21,2025-07-03,59001031311412,missing,13.11412,-59.00103
missing,Rice Bartlett and Thompson Clinic,health center,408,st. lucy,2021-06-06,2024-08-08,59150791310836,,13.10836,-59.15079
00534,West-Hamilton Infirmary,clinic,0,missing,2021-08-15,2024-10-10,12584458420,,12.584,-45.842
8cfebe,Burns-Jordan Clinic,hospital,383,st. andrew,2018-02-17,2018-05-06,59206411291158,missing,12.91158,-59.20641
04ce8d,Campbell LLC Clinic,health center,0,st. peter,2023-02-21,2021-11-22,125350584611,reinspection due,12.535,-58.4611
HF0537,Sweeney Martinez and Cruz Infirmary,community health center,0,st. george,2025-01-09,2021-09-07,59208641289676,missing,12.89676,-59.20864
538,Graham-Chapman Hospital,missing,105,st. joseph,2016-10-20,2019-06-04,59051051270127,missing,12.70127,-59.05105
missing,Nguyen Inc,community health center,0,st. george,2017-01-01,2019-01-20,13014745902908,,13.01474,-59.02908
540,Lopez-Dunn Health Centre,hospital,0,christ church,2023-11-06,2025-11-23,59111901329739,missing,13.29739,-59.1119
bce211,Woodward-Holmes,polyclinic,10,st. andrew,2022-10-13,2023-05-15,12971785913178,,12.97178,-59.13178
missing,Hamilton LLC ClinicNewLine,hospital,102,christ church,2020-09-16,2025-03-20,59083811270700,missing,12.707,-59.08381
543,Russo-Patrick Polyclinic,health center,222,christ church,2023-02-02,2025-11-22,59154351299049,followup ,12.99049,-59.15435
544,Ford Martin and James Clinic,health center,0,christ church,2025-05-27,2018-03-07,124516591333,,12.4516,-59.1333
544,Ford Martin and James Clin,health center,0,christ church,2025-05-27,2018-03-07,124516591333,,12.4516,-59.1333
545,Bailey-Williams Hospital,polyclinic,0,st. andrew,2024-02-12,2024-02-03,1362859720,good,13.628,-59.72
546,Peters Mendez and Bauer Infirmary,community health center,336,st. lucy,2021-03-25,2025-12-22,59118751317470,good,13.1747,-59.11875
00547,Lee-Rodriguez Medical Center,clinic,110,st. james,2024-08-10,2021-05-20,58702791312833,good,13.12833,-58.70279
b4da53,Deleon Porter and Young Clinic,hospital,276,st. andrew,2021-06-11,2020-09-21,,missing,13.0,-59.0
00549,Wheeler-Jones-and-Ferguson Clinic,health center,67,missing,2024-09-26,2025-03-19,12882805906048,,12.8828,-59.06048
550,Welch Khan and Hickman Polyclinic,community health center,378,st. michael,2018-03-19,2022-08-21,13153559154,missing,13.153,-55.915
551,Ramirez-Wade-and-Hogan Hosp,community health center,71,christ church,2017-11-09,2021-04-28,,reinspection due,13.0,-59.0
552,Gonzalez Robertson and Vargas Hosp,clinic,347,st. michael,2020-12-06,2025-12-12,13067835891737,,13.06783,-58.91737
64aabc,Ray and Sons Infirmary,health center,138,st. michael,2017-09-18,2022-05-27,,,13.0,-59.0
HF0554,Lyons Brooks and Patel Infirmary,polyclinic,140,christ church,2019-05-18,2021-04-26,59264401326457,good,13.26457,-59.2644
00555,Sandoval-Perry Polyclinic,community health center,10,st. lucy,2020-01-30,2020-04-06,124538591444,reinspection due,12.4538,-59.1444
missing,Wise-Wang Infirmary,missing,47,christ church,2016-01-14,2018-02-06,124852585325,good,12.4852,-58.5325
missing,Wise-Wang Infirmary,missing,47,christ church,2016-01-14,2018-02-06,124852585325,good,12.4852,-58.5325
557,Davis-Inc,community health center,0,st. george,2016-01-11,2018-12-27,12961255905919,,12.96125,-59.05919
558,Lara Wilson and Norris,health center,290,st. peter,2016-03-20,2025-08-22,13183845879665,followup ,13.18384,-58.79665
missing,Lee Moore and Harper Infirmary,community health center,336,st. andrew,2025-11-16,2022-11-04,58779441273658,,12.73658,-58.77944
ea51f2,Kane-Allen Clinic,missing,409,christ church,2018-08-07,2020-02-21,58720551287178,followup ,12.87178,-58.72055
missing,French Lee and Mcdonald Polyclinic,clinic,152,st. james,2024-08-14,2025-01-01,58855341323337,missing,13.23337,-58.85534
562,Chen-Mendoza-and-Wilson,missing,10,st. peter,2019-11-25,2020-04-20,59190501289034,followup ,12.89034,-59.1905
missing,Ponce Collins and Joseph,hospital,498,christ church,2021-06-05,2019-04-23,12779795894980,,12.77979,-58.9498
HF0564,Martin Taylor and Hinton,health center,299,missing,2016-08-23,2022-08-05,12991795874345,,12.99179,-58.74345
00565,Allen-Group NewLine,community health center,81,st. joseph,2020-04-13,2020-11-01,58973011301586,missing,13.01586,-58.97301
missing,Day-Mooney Infirmary,polyclinic,0,st. andrew,2023-05-05,2021-08-11,59276691308057,,13.08057,-59.27669
567,Clayton Campos and Anderson Health Centre,hospital,0,st. george,2021-03-04,2023-11-24,,good,13.0,-59.0
missing,Payne Ltd Health Centre,missing,10,st. peter,2020-12-06,2022-01-21,59026881328901,,13.28901,-59.02688
a1f719,Jones-Campbell Clinic,clinic,71,st. john,2019-10-18,2021-05-22,59048731309831,followup ,13.09831,-59.04873
c7c617,Acevedo Hall and Kelly Clinic,polyclinic,0,st. peter,2017-10-03,2019-11-26,,reinspection due,13.0,-59.0
c7c617,Acevedo Hall and Kelly Clin,polyclinic,0,st. peter,2017-10-03,2019-11-26,,reinspection due,13.0,-59.0
571,White-Ltd Infirmary,health center,49,st. george,2018-07-13,2024-12-23,131020585648,reinspection due,13.102,-58.5648
missing,Baker PLC,community health center,296,christ church,2017-09-28,2024-11-05,59299461296327,,12.96327,-59.29946
missing,Wagner Group Polyclinic NewLine,health center,10,missing,2025-07-09,2019-03-29,124619585913,needs upgrade,12.4619,-58.5913
574,Richards Russell and Smith,missing,223,st. michael,2020-02-03,2023-06-02,,missing,13.0,-59.0
HF0575,Dillon-LLC Hosp,clinic,0,christ church,2025-03-28,2025-12-15,58978371289621,,12.89621,-58.97837
HF0576,Peterson Holmes and Wright Health Centre,community health center,14,st. michael,2017-01-04,2019-05-19,58984141305192,missing,13.05192,-58.98414
577,Bowen Maddox and Thompson Hosp,hospital,437,st. george,2018-11-10,2021-09-13,59262681320568,followup ,13.20568,-59.26268
HF0578,Bailey-Lee,community health center,0,st. james,2019-02-19,2023-10-27,58895661311804,missing,13.11804,-58.89566
579,Mejia Group Infirmary,community health center,465,st. george,2024-08-21,2021-05-23,58829981275436,missing,12.75436,-58.82998
HF0580,Tucker-Allison Hosp,polyclinic,0,st. joseph,2022-10-07,2025-02-07,,missing,13.0,-59.0
01c802,Mitchell Young and Frey Infirmary,missing,22,st. joseph,2024-02-27,2024-03-07,,missing,13.0,-59.0
92ee44,Reed Lyons and Rich Hospital NewLine,missing,447,st. lucy,2018-04-24,2021-05-18,13191825897323,,13.19182,-58.97323
92ee44,Reed Lyons and Rich Hosp NewLine,missing,447,st. lucy,2018-04-24,2021-05-18,13191825897323,,13.19182,-58.97323
HF0583,Klein Group Medical Center,hospital,132,st. james,2021-01-04,2021-07-11,1249259759,followup ,12.492,-59.759
missing,Christian Hampton and Weaver,hospital,0,st. george,2019-08-30,2021-08-28,58756711286104,missing,12.86104,-58.75671
00585,Underwood Rosales and Young Hospital,missing,0,st. joseph,2024-10-06,2019-09-27,12453659338,,12.453,-65.933
HF0586,Mason Price and Reyes,clinic,244,st. peter,2023-01-24,2023-02-11,58813211328251,missing,13.28251,-58.81321
919810,Lee-Quinn Medical Center,community health center,2,st. joseph,2025-09-19,2020-01-07,59216491321085,,13.21085,-59.21649
588,Scott Wilkerson and Jensen Hosp,community health center,142,st. peter,2023-07-19,2025-09-06,13045584859,needs upgrade,13.045,-58.485
589,Smith Smith and Ortega,missing,467,st. george,2022-11-08,2022-06-25,58828071309870,reinspection due,13.0987,-58.82807
590,Miller Martinez and Campbell Health Centre,polyclinic,467,missing,2023-04-27,2022-06-10,59096981326658,missing,13.26658,-59.09698
590,Miller Martinez and Campbell Health Centre,polyclinic,467,missing,2023-04-27,2022-06-10,59096981326658,missing,13.26658,-59.09698
00591,Obrien-Porter Infirmary,missing,475,st. andrew,2025-11-21,2024-04-07,,missing,13.0,-59.0
00592,Mccall-Burns-and-Price Health Centre,clinic,35,st. joseph,2023-08-17,2021-11-26,59205331271071,needs upgrade,12.71071,-59.20533
missing,Gray-Huffman-and-Jimenez Clinic,hospital,10,christ church,2018-02-27,2025-11-11,13165955882950,needs upgrade,13.16595,-58.8295
missing,Smith PLC,clinic,393,st. michael,2022-07-18,2020-04-26,59101061289022,missing,12.89022,-59.10106
00595,Jackson-Waters Hosp,missing,0,st. andrew,2017-09-10,2021-03-19,58816481329398,followup ,13.29398,-58.81648
00596,Sanchez Velasquez and Moore,health center,117,st. peter,2023-11-10,2022-02-17,59198611289532,,12.89532,-59.19861
00597,Lee Group Infirmary,hospital,337,st. lucy,2016-04-30,2024-10-25,,,13.0,-59.0
00597,Lee Group Infirmary,hospital,337,st. lucy,2016-04-30,2024-10-25,,,13.0,-59.0
HF0598,Taylor Group,hospital,491,missing,2024-09-19,2019-11-19,58704771293758,followup ,12.93758,-58.70477
missing,Williams-PLC,community health center,493,st. john,2019-07-11,2018-05-26,13210805915529,followup ,13.2108,-59.15529
HF0600,Schmitt Ramirez and Howard Health Centre,polyclinic,123,st. john,2018-02-01,2024-09-04,59261601292968,,12.92968,-59.2616
HF0601,Ruiz-Bailey Health Centre,missing,180,st. michael,2019-01-16,2022-07-14,58960271299561,reinspection due,12.99561,-58.96027
602,Howell-Rollins,community health center,76,st. andrew,2020-01-21,2020-08-06,58787901279947,missing,12.79947,-58.7879
missing,Morrison-Vasquez,clinic,13,st. george,2017-05-22,2024-12-15,12765135887506,followup ,12.76513,-58.87506
3c53bc,Roberts Inc,health center,325,st. john,2025-03-08,2020-03-10,59105031325565,missing,13.25565,-59.10503
605,Smith-Hurst Health Centre,clinic,319,christ church,2025-01-01,2022-03-27,59196731300704,followup ,13.00704,-59.19673
missing,Rogers-Hill HospNewLine,health center,0,st. lucy,2023-05-23,2018-12-05,12945055879693,,12.94505,-58.79693
607,Welch-Norman,missing,11,st. james,2025-08-21,2022-01-27,59240461311763,reinspection due,13.11763,-59.24046
608,Barrett Ellis and Webb Medical Center,clinic,205,st. john,2025-12-19,2020-01-16,,,13.0,-59.0
608,Barrett Ellis and Webb Medical Center,clinic,205,st. john,2025-12-19,2020-01-16,,,13.0,-59.0
32cc97,Smith-Flores Clinic,community health center,499,christ church,2019-10-08,2019-07-08,125510584332,good,12.551,-58.4332
00610,Rubio Inc Polyclinic,clinic,412,st. james,2016-01-19,2021-08-12,59041041306559,missing,13.06559,-59.04104
611,Glass-Fisher-and-Brown Medical Center,health center,182,missing,2020-08-03,2018-06-28,58842891293692,followup ,12.93692,-58.84289
612,Lewis-Mcknight-and-Valencia Hosp,community health center,113,st. james,2025-12-09,2024-01-03,13093535870721,,13.09353,-58.70721
77e19f,White Cochran and Ford Medical Center,community health center,0,st. joseph,2017-08-10,2019-12-03,125937585455,missing,12.5937,-58.5455
missing,Francis LLC Health Centre,clinic,0,st. james,2021-03-13,2020-10-13,58857221298354,good,12.98354,-58.85722
00615,Ramirez Marquez and Simpson,community health center,10,christ church,2019-07-06,2024-09-14,59057321317178,,13.17178,-59.05732
00615,Ramirez Marquez and Simpson,community health center,10,christ church,2019-07-06,2024-09-14,59057321317178,,13.17178,-59.05732
HF0616,Sparks Carter and Joseph Hosp,hospital,10,missing,2019-07-24,2022-05-14,13251175892252,,13.25117,-58.92252
00617,Johnson-Mitchell Hosp,clinic,341,missing,2018-08-15,2022-01-08,58775411283310,,12.8331,-58.77541
618,Huffman Miller and Hoffman,clinic,69,st. michael,2020-10-03,2019-03-06,59200271321184,,13.21184,-59.20027
f98939,Rios Harvey and Sosa Polyclinic,community health center,125,st. joseph,2025-11-13,2025-09-20,1393158546,,13.931,-58.546
f98939,Rios Harvey and Sosa Polyclinic,community health center,125,st. joseph,2025-11-13,2025-09-20,1393158546,,13.931,-58.546
missing,Rice-Barber,polyclinic,0,missing,2020-07-04,2021-10-31,59050601278237,reinspection due,12.78237,-59.0506
00621,Foster Schmitt and Lynch,missing,68,st. joseph,2018-03-18,2022-04-04,12838955919460,missing,12.83895,-59.1946
622,Owens-English,missing,10,st. george,2021-04-30,2021-01-16,,,13.0,-59.0
623,Flores-LLC Hosp,missing,0,christ church,2022-01-12,2018-08-23,124930584253,missing,12.493,-58.4253
624,Washington Barker and Medina,health center,59,st. joseph,2018-04-02,2018-10-30,59108621301122,missing,13.01122,-59.10862
625,Buchanan-PLC Medical Center,health center,0,st. john,2020-12-30,2019-04-13,,missing,13.0,-59.0
625,Buchanan-PLC Medical Center,health center,0,st. john,2020-12-30,2019-04-13,,missing,13.0,-59.0
missing,Coleman-Spencer-and-Miller,missing,168,st. george,2022-01-13,2020-01-04,,reinspection due,13.0,-59.0
627,Montgomery and Sons Clinic,community health center,169,st. james,2016-05-23,2024-01-31,58731431284704,reinspection due,12.84704,-58.73143
628,Mcdonald-Mcdaniel Clinic,polyclinic,0,st. james,2017-10-08,2025-06-14,13132575875027,,13.13257,-58.75027
629,Peters-Lynch Health Centre,hospital,3,st. george,2022-01-03,2018-06-21,58792161273851,followup ,12.73851,-58.79216
629,Peters-Lynch Health Centre,hospital,3,st. george,2022-01-03,2018-06-21,58792161273851,followup ,12.73851,-58.79216
missing,Richards-Rios,missing,0,st. john,2023-09-22,2021-11-02,58813461318306,,13.18306,-58.81346
00631,Carter and Sons Polyclinic,hospital,383,st. andrew,2024-07-08,2020-05-20,59133771278599,,12.78599,-59.13377
632,Barton-Romero Clinic,hospital,0,christ church,2021-05-11,2022-01-24,,missing,13.0,-59.0
00633,Kramer-Gordon Hospital,hospital,0,christ church,2023-03-08,2019-10-15,58929911313461,missing,13.13461,-58.92991
00634,Warren Trujillo and Carter,polyclinic,24,st. lucy,2021-12-20,2024-04-21,58830031277421,good,12.77421,-58.83003
01fac7,Gilbert Ltd Polyclinic,community health center,243,christ church,2024-11-30,2024-11-29,59030561284193,needs upgrade,12.84193,-59.03056
636,Garcia Esparza and Bartlett,missing,0,christ church,2017-04-16,2024-06-16,131315591152,,13.1315,-59.1152
636,Garcia Esparza and Bartlett,missing,0,christ church,2017-04-16,2024-06-16,131315591152,,13.1315,-59.1152
missing,Conner Garcia and Vazquez,health center,92,st. peter,2023-10-20,2024-01-12,12890545889086,,12.89054,-58.89086
HF0638,Ellis Wilkinson and Perkins Clinic,clinic,397,st. joseph,2023-11-23,2025-08-31,59137201290311,missing,12.90311,-59.1372
27e16d,King LLC Clinic,missing,0,st. joseph,2020-01-18,2020-03-03,59263351294152,good,12.94152,-59.26335
640,Blevins-Black Infirmary,missing,88,st. james,2019-08-12,2025-07-26,124916591641,,12.4916,-59.1641
641,Parker-Garcia Infirmary,hospital,58,st. michael,2016-12-09,2020-05-10,12725495913475,needs upgrade,12.72549,-59.13475
HF0642,Deleon-Stevens Hospital,missing,0,christ church,2016-12-14,2025-01-14,58753361325076,needs upgrade,13.25076,-58.75336
HF0643,Hartman Elliott and Marsh Health CentreNewLine,clinic,10,st. james,2019-04-30,2025-03-16,,,13.0,-59.0
644,Lopez Harris and Stone Hospital,hospital,10,st. peter,2019-01-22,2018-09-17,59156961295793,good,12.95793,-59.15696
644,Lopez Harris and Stone Hosp,hospital,10,st. peter,2019-01-22,2018-09-17,59156961295793,good,12.95793,-59.15696
missing,Aguilar Benjamin and Rogers Health Centre,polyclinic,213,st. john,2019-07-15,2019-11-24,13104159147,needs upgrade,13.104,-15.914
646,Smith Butler and Reyes Infirmary,clinic,87,st. george,2023-01-01,2025-04-02,12841685923742,,12.84168,-59.23742
HF0647,Mitchell PLC,polyclinic,482,st. andrew,2020-01-03,2021-10-02,13102759641,missing,13.102,-75.964
HF0648,Hall Davis and Massey Hosp,missing,0,st. george,2019-04-22,2022-07-04,58949701300808,,13.00808,-58.9497
649,Nash-Black Health Centre,community health center,22,st. michael,2020-05-14,2023-04-28,124513585253,good,12.4513,-58.5253
649,Nash-Black Health Centre,community health center,22,st. michael,2020-05-14,2023-04-28,124513585253,good,12.4513,-58.5253
missing,Patterson Rodriguez and Manning Clinic,polyclinic,286,christ church,2016-05-11,2021-03-15,1395559415,reinspection due,13.955,-59.415
651,Keller-Trujillo,community health center,0,st. george,2017-04-27,2019-08-23,,good,13.0,-59.0
a5e5ae,Ryan Ward and Hernandez,hospital,10,st. joseph,2021-01-08,2020-05-30,58826751307724,,13.07724,-58.82675
cde1db,Harris PLC NewLine,community health center,0,st. andrew,2023-05-10,2025-04-10,58799811304914,good,13.04914,-58.79981
cde1db,Harris PLC NewLine,community health center,0,st. andrew,2023-05-10,2025-04-10,58799811304914,good,13.04914,-58.79981
ea178c,Silva Erickson and Gamble Infirmary,clinic,10,st. george,2022-09-25,2018-07-16,125941585056,needs upgrade,12.5941,-58.5056
ea178c,Silva Erickson and Gamble Infirmary,clinic,10,st. george,2022-09-25,2018-07-16,125941585056,needs upgrade,12.5941,-58.5056
655,Clark Hayes and Washington,clinic,0,st. james,2020-07-14,2023-01-02,58984801295120,good,12.9512,-58.9848
656,Griffith-Robinson Infirmary,health center,10,christ church,2024-12-16,2024-02-26,12879815893689,followup ,12.87981,-58.93689
657,Barnett-Brewer-and-Jones Health Centre,clinic,191,st. george,2017-11-12,2024-07-29,58763531276493,followup ,12.76493,-58.76353
657,Barnett-Brewer-and-Jones Health Centre,clinic,191,st. george,2017-11-12,2024-07-29,58763531276493,followup ,12.76493,-58.76353
HF0658,Pacheco-Brown Hosp,clinic,35,st. george,2020-10-16,2023-05-30,59031621321283,followup ,13.21283,-59.03162
missing,Sellers-Brooks Health Centre,polyclinic,0,st. john,2021-09-12,2024-04-20,58933971277693,reinspection due,12.77693,-58.93397
HF0660,Fisher Ltd HospitalNewLine,community health center,0,st. john,2025-11-11,2022-12-14,59115321315680,,13.1568,-59.11532
661,Smith-Dodson,polyclinic,145,christ church,2021-12-12,2020-09-25,59013601311257,missing,13.11257,-59.0136
missing,Guzman-Hernandez Polyclinic,polyclinic,265,st. john,2023-10-31,2019-10-07,59133011280585,,12.80585,-59.13301
missing,Fritz LLC,hospital,0,christ church,2020-04-23,2019-10-26,59154141304513,missing,13.04513,-59.15414
missing,Ruiz PLC,polyclinic,10,missing,2018-04-24,2024-06-27,124851584831,followup ,12.4851,-58.4831
missing,Atkins PLC Infirmary,health center,0,st. peter,2020-06-13,2021-06-25,1341659237,missing,13.416,-59.237
666,Peters-Jackson,polyclinic,0,missing,2024-04-20,2020-06-04,58823591290241,reinspection due,12.90241,-58.82359
missing,Martin-Thompson Clinic,polyclinic,458,st. james,2025-05-31,2019-04-06,59177521275532,,12.75532,-59.17752
668,Wilson Valdez and Landry,community health center,0,st. michael,2025-07-12,2018-10-06,124641585848,followup ,12.4641,-58.5848
missing,Steele-Summers Hosp,community health center,2,st. joseph,2021-04-03,2018-03-09,,,13.0,-59.0
670,Rodriguez-Joseph,community health center,256,christ church,2018-03-14,2019-09-08,58937491295960,,12.9596,-58.93749
missing,Ruiz-Edwards Infirmary,hospital,0,st. james,2025-02-06,2020-04-26,58983361309534,followup ,13.09534,-58.98336
00672,Mendoza Camacho and Burke Health Centre,hospital,412,st. andrew,2020-05-18,2021-11-19,59249001308048,good,13.08048,-59.249
HF0673,Clark Rodriguez and Cooper,health center,26,st. joseph,2023-04-16,2018-02-24,,,13.0,-59.0
missing,Norman PLC Medical Center,missing,0,st. george,2016-05-06,2024-04-29,58771981283640,missing,12.8364,-58.77198
missing,Norman PLC Medical Center,missing,0,st. george,2016-05-06,2024-04-29,58771981283640,missing,12.8364,-58.77198
HF0675,Wolf Villegas and Lynn,clinic,33,st. lucy,2017-12-04,2020-10-27,13553585927,,13.553,-58.592
676,Davis-Mcbride Hosp,hospital,151,st. james,2022-08-01,2019-07-15,,missing,13.0,-59.0
missing,Ryan PLC,community health center,10,christ church,2024-09-05,2025-08-05,12922665920575,,12.92266,-59.20575
missing,Ryan PLC,community health center,10,christ church,2024-09-05,2025-08-05,12922665920575,,12.92266,-59.20575
00678,Smith Phillips and Clark,clinic,0,st. john,2019-11-06,2018-10-03,,,13.0,-59.0
missing,Acosta-Thomas Infirmary,health center,473,st. andrew,2021-09-17,2019-03-01,58895961297663,,12.97663,-58.89596
680,Nguyen-Martinez-and-Peters Medical Center,missing,314,st. john,2023-02-28,2019-03-09,12463059524,reinspection due,5.952,-12.463
missing,Solis Williams and Joseph Clinic,missing,10,st. joseph,2018-09-01,2020-04-10,59162981285706,good,12.85706,-59.16298
682,Olson-Garcia-and-Gonzalez Health Centre,community health center,0,st. michael,2019-03-14,2022-10-10,59217601320698,needs upgrade,13.20698,-59.2176
683,Ryan-SmithNewLine,missing,83,st. andrew,2019-07-24,2019-09-21,59209051310240,followup ,13.1024,-59.20905
00684,Perez-Alvarez Clinic,missing,220,st. michael,2021-11-16,2024-11-07,,good,13.0,-59.0
HF0685,Todd-Goodwin Hospital,clinic,413,st. james,2021-06-26,2020-09-14,58722451290144,,12.90144,-58.72245
HF0685,Todd-Goodwin Hosp,clinic,413,st. james,2021-06-26,2020-09-14,58722451290144,,12.90144,-58.72245
missing,Gray Casey and Clayton Clinic,clinic,0,st. joseph,2019-03-29,2021-08-25,,missing,13.0,-59.0
missing,Gray Casey and Clayton Clin,clinic,0,st. joseph,2019-03-29,2021-08-25,,missing,13.0,-59.0
missing,Stephens-Hanson-and-Barnes Clinic,health center,228,st. george,2022-03-08,2023-10-25,58862171325808,good,13.25808,-58.86217
HF0688,Anderson-Walker Clinic,missing,0,st. george,2021-02-22,2021-01-07,58924591302301,,13.02301,-58.92459
HF0688,Anderson-Walker Clin,missing,0,st. george,2021-02-22,2021-01-07,58924591302301,,13.02301,-58.92459
missing,Perry-Inc,community health center,0,st. andrew,2023-07-27,2020-03-12,1395585844,reinspection due,13.955,-85.844
690,Green Allison and Williams Hosp,clinic,0,st. michael,2017-05-12,2023-02-01,59240011281076,good,12.81076,-59.24001
691,Lozano-Gutierrez-and-Mendez Hospital,polyclinic,0,st. george,2023-05-21,2020-02-14,,followup ,13.0,-59.0
691,Lozano-Gutierrez-and-Mendez Hosp,polyclinic,0,st. george,2023-05-21,2020-02-14,,followup ,13.0,-59.0
missing,Smith-Gonzalez,health center,266,st. joseph,2020-11-07,2021-02-15,,reinspection due,13.0,-59.0
missing,Smith-Gonzalez,health center,266,st. joseph,2020-11-07,2021-02-15,,reinspection due,13.0,-59.0
ea2f1b,Weaver-Davidson-and-Nunez Clinic,missing,290,st. michael,2020-04-17,2024-11-18,58854211283607,needs upgrade,12.83607,-58.85421
HF0694,Hawkins-Carter,polyclinic,94,st. michael,2021-01-21,2020-05-09,12513059832,followup ,5.983,-12.513
missing,Smith Martin and Dudley,hospital,455,missing,2025-02-03,2020-07-21,,good,13.0,-59.0
696,Proctor Powell and Raymond Hospital,health center,306,st. joseph,2023-07-09,2025-08-02,59115601320162,followup ,13.20162,-59.1156
00697,Adams Craig and Delgado Hosp,polyclinic,0,st. george,2025-05-18,2024-03-20,124456584229,missing,12.4456,-58.4229
HF0698,Newman-Campbell Hosp,community health center,0,st. joseph,2018-11-20,2025-10-30,58917951285139,good,12.85139,-58.91795
missing,Jones PLC Health Centre,community health center,10,st. james,2017-05-23,2021-02-08,58845291322543,,13.22543,-58.84529
missing,Holland-Reynolds,hospital,271,st. james,2021-11-28,2023-08-19,58925361276795,followup ,12.76795,-58.92536
701,Ferguson Brooks and Hayes,health center,10,christ church,2019-04-16,2019-06-01,59115741279889,good,12.79889,-59.11574
702,Bowers Group Hospital,polyclinic,144,st. george,2022-06-10,2025-02-18,58777331306210,,13.0621,-58.77733
071650,Warren-Valenzuela,community health center,10,st. michael,2021-12-23,2019-05-10,58968731325699,,13.25699,-58.96873
c64152,Benson Group Infirmary,community health center,204,st. james,2021-06-26,2020-08-19,12812305925918,reinspection due,12.8123,-59.25918
missing,Williams Crane and Kennedy Hosp,clinic,136,st. john,2016-11-12,2023-01-07,13140255889907,reinspection due,13.14025,-58.89907
7075cb,Trujillo Russell and Peterson Medical Center,hospital,22,st. james,2020-03-24,2020-08-01,58731891292619,missing,12.92619,-58.73189
7075cb,Trujillo Russell and Peterson Medical Center,hospital,22,st. james,2020-03-24,2020-08-01,58731891292619,missing,12.92619,-58.73189
3e46d7,Rodriguez Inc,health center,10,st. john,2016-09-20,2019-10-30,58944501272070,missing,12.7207,-58.9445
HF0708,Lester Reese and Simon Clinic,community health center,254,st. george,2020-06-02,2018-06-15,58827121311229,missing,13.11229,-58.82712
709,Smith Inc,hospital,399,st. george,2019-09-30,2020-12-18,59032931300697,reinspection due,13.00697,-59.03293
e51a8f,Garcia Martin and Zimmerman Polyclinic,polyclinic,156,christ church,2016-12-09,2020-07-08,59070881322890,,13.2289,-59.07088
0ea9c0,Dillon and Sons Health Centre,missing,0,st. andrew,2023-10-03,2022-04-02,131313585738,needs upgrade,13.1313,-58.5738
712,Ross-Fitzpatrick,community health center,0,st. peter,2021-10-01,2019-06-03,125955591232,missing,12.5955,-59.1232
missing,Anderson Ltd,polyclinic,281,st. joseph,2021-12-03,2024-08-26,13071855928442,reinspection due,13.07185,-59.28442
714,Johnson-James-and-Strickland Medical Center,polyclinic,220,christ church,2018-07-06,2022-11-28,124951585315,followup ,12.4951,-58.5315
5ecd24,Martinez-Franco,health center,49,missing,2024-11-25,2019-01-02,,missing,13.0,-59.0
716,Morrison-Lopez,community health center,161,st. james,2017-03-30,2023-12-03,,reinspection due,13.0,-59.0
missing,Davis Gomez and Smith,clinic,0,st. james,2023-06-21,2023-01-10,58714901273094,missing,12.73094,-58.7149
718,Vincent-Gardner Clinic,polyclinic,106,st. john,2025-07-11,2021-07-10,1254458513,missing,12.544,-58.513
718,Vincent-Gardner Clin,polyclinic,106,st. john,2025-07-11,2021-07-10,1254458513,missing,12.544,-58.513
missing,Phillips-Nelson,polyclinic,135,st. joseph,2019-06-01,2018-05-29,58788811296099,missing,12.96099,-58.78881
missing,Mcclure PLC,missing,462,st. lucy,2018-08-04,2023-05-08,59292691317481,followup ,13.17481,-59.29269
721,Mitchell Sawyer and Cardenas Health Centre,community health center,224,st. lucy,2020-03-10,2024-01-05,59170061316938,good,13.16938,-59.17006
722,Thompson Moore and Fry Polyclinic,community health center,0,christ church,2021-12-30,2023-03-18,59222851305494,good,13.05494,-59.22285
missing,Franco-LLC Medical Center,health center,0,st. john,2020-05-14,2022-10-09,58798901301047,,13.01047,-58.7989
HF0724,Byrd Group Health Centre,hospital,10,st. michael,2016-03-15,,58927451329569,good,13.29569,-58.92745
5bb67a,Hines and Sons,community health center,0,st. peter,2020-05-26,2022-05-31,12483558565,followup ,12.483,-55.856
missing,Smith-Escobar-and-Lamb Hospital,polyclinic,0,st. lucy,2025-01-20,2021-08-31,1314859640,followup ,13.148,-59.64
missing,Smith-Escobar-and-Lamb Hosp,polyclinic,0,st. lucy,2025-01-20,2021-08-31,1314859640,followup ,13.148,-59.64
727,Brown and Sons Medical Center,polyclinic,184,st. lucy,2020-01-21,2023-02-16,58875611287663,,12.87663,-58.87561
missing,Williams Inc,community health center,477,st. james,2018-09-19,2024-06-07,59001851277962,,12.77962,-59.00185
729,Rosales PLC Medical Center,polyclinic,223,st. peter,2023-07-16,2019-09-29,58767051282627,missing,12.82627,-58.76705
missing,Reed-Ltd Clinic,missing,396,st. james,2023-02-18,2018-08-03,125536585243,,12.5536,-58.5243
missing,Fletcher-Smith,health center,357,st. james,2017-03-21,2025-11-12,58925351295733,followup ,12.95733,-58.92535
missing,Coleman Wilson and Rowe Hospital,hospital,331,st. andrew,2019-12-07,2025-10-04,13098515897210,good,13.09851,-58.9721
missing,Haas Group Clinic NewLine,hospital,0,st. joseph,2019-08-12,2022-06-07,13238055914229,missing,13.23805,-59.14229
734,Brown Clark and Perez Infirmary,clinic,412,st. john,2025-09-16,2024-07-18,58954911308318,needs upgrade,13.08318,-58.95491
735,James-Hughes Polyclinic,clinic,57,st. george,2019-06-06,2023-02-02,,,13.0,-59.0
411f24,Montgomery-LLC Infirmary,community health center,416,st. james,2018-06-30,2019-12-30,58744091319409,needs upgrade,13.19409,-58.74409
737,Freeman-Inc Hospital,clinic,0,st. george,2019-03-01,2018-07-19,58746321298868,,12.98868,-58.74632
738,Perkins-Leach Clinic,hospital,459,missing,2020-11-12,2022-09-08,13114359647,good,13.114,-35.964
missing,Colon Morrow and Montgomery,missing,63,st. michael,2022-08-07,2020-10-20,,,13.0,-59.0
HF0740,Garcia Inc Polyclinic,health center,134,st. george,2017-10-07,2022-11-08,59035091310331,missing,13.10331,-59.03509
HF0740,Garcia Inc Polyclinic,health center,134,st. george,2017-10-07,2022-11-08,59035091310331,missing,13.10331,-59.03509
741,Williams Group,polyclinic,0,st. joseph,2017-06-11,2018-04-26,59288951318454,,13.18454,-59.28895
e41c93,Martin-Rodriguez,hospital,442,st. andrew,2024-11-10,2021-03-13,59157271299893,,12.99893,-59.15727
HF0743,Zimmerman PLC Medical Center,community health center,264,st. joseph,2020-12-29,2018-11-21,58752361313342,missing,13.13342,-58.75236
HF0744,Chen-Kelly,community health center,186,st. lucy,2024-02-16,2021-08-20,12471959614,missing,12.471,-95.961
missing,Sosa Group,missing,0,christ church,2017-03-23,2025-10-07,59248511290627,needs upgrade,12.90627,-59.24851
c56fca,Mcdonald and Sons Clinic,polyclinic,353,st. peter,2023-07-18,2022-09-09,59272471327467,,13.27467,-59.27247
747,Cooper Wilson and Castillo Hosp,community health center,364,st. michael,2016-07-22,2019-01-30,12733915923583,,12.73391,-59.23583
747,Cooper Wilson and Castillo Hosp,community health center,364,st. michael,2016-07-22,2019-01-30,12733915923583,,12.73391,-59.23583
748,Hughes and Sons Clinic,clinic,436,st. james,2018-09-22,2019-05-07,,missing,13.0,-59.0
missing,Reyes-Hoffman Medical Center,polyclinic,155,st. peter,2023-12-16,2025-01-25,59176551285845,reinspection due,12.85845,-59.17655
HF0750,Knight Wright and Smith,missing,18,st. joseph,2016-09-22,2019-02-26,58849461295707,followup ,12.95707,-58.84946
e270ed,Ortiz Johnson and Murray Polyclinic,health center,10,st. andrew,2021-04-21,2022-11-18,,good,13.0,-59.0
752,Freeman-Luna-and-Garcia Hosp,health center,6,st. james,2019-12-20,2024-03-12,59288561303115,missing,13.03115,-59.28856
752,Freeman-Luna-and-Garcia Hosp,health center,6,st. james,2019-12-20,2024-03-12,59288561303115,missing,13.03115,-59.28856
00753,Leonard-Hernandez,community health center,0,st. joseph,2018-09-11,2025-05-18,59030261308743,missing,13.08743,-59.03026
00754,Carter Leonard and Roy,missing,314,missing,2022-08-31,2024-06-19,13026065910901,good,13.02606,-59.10901
HF0755,Hoffman-Alvarado Polyclinic,health center,29,st. joseph,2019-12-05,2019-08-24,12890585904340,,12.89058,-59.0434
05b4f8,Salazar-Davidson Medical Center,community health center,484,st. michael,2019-01-21,2021-09-05,12818635912525,needs upgrade,12.81863,-59.12525
HF0757,White Smith and Brown Health Centre,community health center,268,st. john,2022-07-13,2025-02-13,58926281310959,followup ,13.10959,-58.92628
missing,Hutchinson LLC Infirmary,polyclinic,0,missing,2021-05-21,2019-07-24,58917951328201,,13.28201,-58.91795
missing,Hutchinson LLC Infirmary,polyclinic,0,missing,2021-05-21,2019-07-24,58917951328201,,13.28201,-58.91795
30b89e,Wilkinson-Walters,missing,401,st. john,2023-07-30,2024-04-25,,good,13.0,-59.0
missing,Cole Valencia and Stephens Hosp,polyclinic,445,st. andrew,2022-12-04,2024-04-06,59051431303941,good,13.03941,-59.05143
761,Powell LLC Hospital,clinic,286,st. james,2022-07-28,2019-08-04,59017031290486,followup ,12.90486,-59.01703
761,Powell LLC Hosp,clinic,286,st. james,2022-07-28,2019-08-04,59017031290486,followup ,12.90486,-59.01703
